=~=~=~=~=~=~=~=~=~=~=~= PuTTY log 2026.04.14 18:26:53 =~=~=~=~=~=~=~=~=~=~=~=
GSV,3,6,063,,73,32,134,,74,31,194,,72,28,258,*65
$GLGSV,2,2,07,85,28,005,,83,28,135,,71,28,318,,,,,*50
$GPGLL,1952.21561,S,04357.77099,W,211031.800,V,N*4D
$PSTMCPU,28.74,-1,49*46
$GPRMC,211032.000,V,1952.21561,S,04357.77099,W,0.0,0.0,140426,,,N*74
$GPGGA,211032.000,1952.21561,S,04357.77099,W,0,00,99.0,796.01,M,0.0,M,,*63
$GPVTG,0.0,T,,M,0.0,N,0.0,K,N*02
$GNGSA,A,1,,,,,,,,,,,,,99.0,99.0,99.0*1E
$GNGSA,A,1,,,,,,,,,,,,,99.0,99.0,99.0*1E
$GPGSV,3,1,12,19,64,148,,13,57,321,,20,49,309,,06,37,055,*78
$G,,,,,,2,12,17,36,145,,15,37,274,,24,28,217,,22,29,136,*7E
$GPGSV,3,3,12,30,25,058,,11,23,010,,14,19,121,,12,18,256,*77
$GLGSV,2,1,07,84,56,063,,73,32,134,,74,31,194,,72,28,258,*65
$GLGSV,2,2,07,85,28,005,,83,28,135,,71,28,318,,,,,*50
$GPGLL,1952.21561,S,04357.77099,W,211032.000,V,N*46
$PSTMCPU,28.74,-1,49*46
$GPRMC,211032.200,V,1952.21561,S,04357.77099,W,0.0,0.0,140426,,,N*76
$GPGGA,211032.200,1952.21561,S,04357.77099,W,0,00,99.0,796.01,M,0.0,M,,*61
$GPVTG,0.0,T,,M,0.0,N,0.0,K,N*02
$GNGSA,A,1,,,,,,N*70,99.0,99.0,99.0*1E
$GNGSA,A,1,,,,,,,,,,,,,99.0,99.0,99.0*1E
$GPGSV,3,1,12,19,64,148,,13,57,321,,20,49,309,,06,37,055,*78
$GPGSV,3,2,12,17,36,145,,15,37,274,,24,28,217,,22,29,136,*7E
$GPGSV,3,3,12,30,25,058,,11,23,010,,14,19,121,,12,18,256,*77
$GLGSV,2,1,07,84,56,063,,73,32,134,,74,31,194,,72,28,258,*65
$GLGSV,2,2,07,85,28,005,,83,28,135,,71,28,318,,,,,*50
$GPGLL,1952.21561,S,04357.77099,W,211032.200,V,N*44
$PSTMCPU,37.27,-1,49*4E
$GPRMC,211032.400,V,1952.21561,S,04357.77099,W,0.0,0.0,140426,56,*77561,S,04357.77099,W,211032.400,V,N*42
$PSTMCPU,37.27,-1,49*4E
$GPRMC,211032.600,V,1952.21561,S,04357.77099,W,0.0,0.0,140426,,,N*72
$GPGGA,211032.600,1952.21561,S,04357.77099,W,0,00,99.0,796.01,M,0.0,M,,*65
$GPVTG,0.0,T,,M,0.0,N,0.0,K,N*02
$GNGSA,A,1,,,,,,,,,,,,,99.0,99.0,99.0*1E
$GNGSA,A,1,,,,,,,,,,,,,99.0,99.0,99.0*1E
$GPGSV,3,1,12,19,64,148,,13,57,321,,20,49,309,,06,37,055,*78
$GPGSV,3,2,12,17,36,145,,15,37,274,,24,28,217,,22,29,136,*7E
$GPGSV,3,3,12,30,25,058,,11,23,010,,14,19,121,,12,18,,,06,3
$GLGSV,2,1,07,84,56,063,,73,32,134,,74,31,194,,72,28,258,*65
$GLGSV,2,2,07,85,28,005,,83,28,135,,71,28,318,,,,,*50
$GPGLL,1952.21561,S,04357.77099,W,211032.600,V,N*40
$PSTMCPU,37.27,-1,49*4E
$GPRMC,211032.800,V,1952.21561,S,04357.77099,W,0.0,0.0,140426,,,N*7C
$GPGGA,211032.800,1952.21561,S,04357.77099,W,0,00,99.0,796.01,M,0.0,M,,*6B
$GPVTG,0.0,T,,M,0.0,N,0.0,K,N*02
$GNGSA,A,1,,,,,,,,,,,,,99.0,99.0,99.0*1E
$GNGSA,A,1,,,,,,,,,,,,,99.0,99.0,99.0*1E
$GPGSV,3,1,12,19,64,148,,13,57,321,,20,49,3002
$G7,055,*78
$GPGSV,3,2,12,17,36,145,,15,37,274,,24,28,217,,22,29,136,*7E
$GPGSV,3,3,12,30,25,058,,11,23,010,,14,19,121,,12,18,256,*77
$GLGSV,2,1,07,84,56,063,,73,32,134,,74,31,194,,72,28,258,*65
$GLGSV,2,2,07,85,28,005,,83,28,135,,71,28,318,,,,,*50
$GPGLL,1952.21561,S,04357.77099,W,211032.800,V,N*4E
$PSTMCPU,37.27,-1,49*4E
$GPRMC,211033.000,V,1952.21561,S,04357.77099,W,0.0,0.0,140426,,,N*75
$GPGGA,211033.000,1952.21561,S,04357.77099,W,0,00,99.0,796.01,M,0.0,M,,*62
$GPVTG,0.0,T,,M,0.0,N,0.0,K,N9,W,0.NGSA,A,1,,,,,,,,,,,,,99.0,99.0,99.0*1E
$GNGSA,A,1,,,,,,,,,,,,,99.0,99.0,99.0*1E
$GPGSV,3,1,12,19,64,148,,13,57,321,,20,49,309,,06,37,055,*78
$GPGSV,3,2,12,17,36,145,,15,37,274,,24,28,217,,22,29,136,*7E
$GPGSV,3,3,12,30,25,058,,11,23,010,,14,19,121,,12,18,256,*77
$GLGSV,2,1,07,84,56,063,,73,32,134,,74,31,194,,72,28,258,*65
$GLGSV,2,2,07,85,28,005,,83,28,135,,71,28,318,,,,,*50
$GPGLL,1952.21561,S,04357.77099,W,211033.000,V,N*47
$PSTMCPU,37.27,-1,49*4E
$GPRMC,211033.200,V,1952.21561,S,04357.770,,14,1,*50
$GPGLL,1952.21561,S,04357.77099,W,211033.200,V,N*45
$PSTMCPU,29.08,-1,49*4C
$GPRMC,211033.400,V,1952.21561,S,04357.77099,W,0.0,0.0,140426,,,N*71
$GPGGA,211033.400,1952.21561,S,04357.77099,W,0,00,99.0,796.01,M,0.0,M,,*66
$GPVTG,0.0,T,,M,0.0,N,0.0,K,N*02
$GNGSA,A,1,,,,,,,,,,,,,99.0,99.0,99.0*1E
$GNGSA,A,1,,,,,,,,,,,,,99.0,99.0,99.0*1E
$GPGSV,3,1,12,19,64,148,,13,57,321,,20,49,309,,06,37,055,*78
$GPGSV,3,2,12,17,36,145,,15,37,274,,24,28,217,,22,29,136,*7E
$GPGSV,3,3,12,30,25,058,,11,23,0113,57,9,121,,12,18,256,*77
$GLGSV,2,1,07,84,56,063,,73,32,134,,74,31,194,,72,28,258,*65
$GLGSV,2,2,07,85,28,005,,83,28,135,,71,28,318,,,,,*50
$GPGLL,1952.21561,S,04357.77099,W,211033.400,V,N*43
$PSTMCPU,29.08,-1,49*4C
$GPRMC,211033.600,V,1952.21561,S,04357.77099,W,0.0,0.0,140426,,,N*73
$GPGGA,211033.600,1952.21561,S,04357.77099,W,0,00,99.0,796.01,M,0.0,M,,*64
$GPVTG,0.0,T,,M,0.0,N,0.0,K,N*02
$GNGSA,A,1,,,,,,,,,,,,,99.0,99.0,99.0*1E
$GNGSA,A,1,,,,,,,,,,,,,99.0,99.0,99.0*1E
$GPGSV,3,1,12,19,64,148,,T,,M,321,,20,49,309,,06,37,055,*78
$GPGSV,3,2,12,17,36,145,,15,37,274,,24,28,217,,22,29,136,*7E
$GPGSV,3,3,12,30,25,058,,11,23,010,,14,19,121,,12,18,256,*77
$GLGSV,2,1,07,84,56,063,,73,32,134,,74,31,194,,72,28,258,*65
$GLGSV,2,2,07,85,28,005,,83,28,135,,71,28,318,,,,,*50
$GPGLL,1952.21561,S,04357.77099,W,211033.600,V,N*41
$PSTMCPU,29.08,-1,49*4C
$GPRMC,211033.800,V,1952.21561,S,04357.77099,W,0.0,0.0,140426,,,N*7D
$GPGGA,211033.800,1952.21561,S,04357.77099,W,0,00,99.0,796.01,M,0.0,M,,*6A
$GPVTG,0.2.21560.0,N,0.0,K,N*02
$GNGSA,A,1,,,,,,,,,,,,,99.0,99.0,99.0*1E
$GNGSA,A,1,,,,,,,,,,,,,99.0,99.0,99.0*1E
$GPGSV,3,1,12,19,64,148,,13,57,321,,20,49,309,,06,37,055,*78
$GPGSV,3,2,12,17,36,145,,15,37,274,,24,28,217,,22,29,136,*7E
$GPGSV,3,3,12,30,25,058,,11,23,010,,14,19,121,,12,18,256,*77
$GLGSV,2,1,07,84,56,063,,73,32,134,,74,31,194,,72,28,258,*65
$GLGSV,2,2,07,85,28,005,,83,28,135,,71,28,318,,,,,*50
$GPGLL,1952.21561,S,04357.77099,W,211033.800,V,N*4F
$PSTMCPU,29.08,-1,49*4C
$GPRMC,211034.000,V,19,,83,21,S,04357.77099,W,0.0,0.0,140426,,,N*72
$GPGGA,211034.000,1952.21561,S,04357.77099,W,0,00,99.0,796.01,M,0.0,M,,*65
$GPVTG,0.0,T,,M,0.0,N,0.0,K,N*02
$GNGSA,A,1,,,,,,,,,,,,,99.0,99.0,99.0*1E
$GNGSA,A,1,,,,,,,,,,,,,99.0,99.0,99.0*1E
$GPGSV,3,1,12,19,64,148,,13,57,321,,20,49,309,,06,37,055,*78
$GPGSV,3,2,12,17,36,145,,15,37,274,,24,28,217,,22,29,136,*7E
$GPGSV,3,3,12,30,25,058,,11,23,010,,14,19,121,,12,18,256,*77
$GLGSV,2,1,07,84,56,063,,73,32,134,,74,31,194,,72,28,258,*65
$GLGSV,2,2,07,85,28,0030,25,8,135,,71,28,318,,,,,*50
$GPGLL,1952.21561,S,04357.77099,W,211034.000,V,N*40
$PSTMCPU,29.08,-1,49*4C
$GPRMC,211034.200,V,1952.21561,S,04357.77099,W,0.0,0.0,140426,,,N*70
$GPGGA,211034.200,1952.21561,S,04357.77099,W,0,00,99.0,796.01,M,0.0,M,,*67
$GPVTG,0.0,T,,M,0.0,N,0.0,K,N*02
$GNGSA,A,1,,,,,,,,,,,,,99.0,99.0,99.0*1E
$GNGSA,A,1,,,,,,,,,,,,,99.0,99.0,99.0*1E
$GPGSV,3,1,12,19,64,148,,13,57,321,,20,49,309,,06,37,055,*78
$GPGSV,3,2,12,17,36,145,,15,37,274,,24,28,217,,22,29,136,*7E
$GPGSV,3,3,12V,3,1,058,,11,23,010,,14,19,121,,12,18,256,*77
$GLGSV,2,1,07,84,56,063,,73,32,134,,74,31,194,,72,28,258,*65
$GLGSV,2,2,07,85,28,005,,83,28,135,,71,28,318,,,,,*50
$GPGLL,1952.21561,S,04357.77099,W,211034.200,V,N*42
$PSTMCPU,63.77,-1,49*4A
$GPRMC,211034.400,V,1952.21561,S,04357.77099,W,0.0,0.0,140426,,,N*76
$GPGGA,211034.400,1952.21561,S,04357.77099,W,0,00,99.0,796.01,M,0.0,M,,*61
$GPVTG,0.0,T,,M,0.0,N,0.0,K,N*02
$GNGSA,A,1,,,,,,,,,,,,,99.0,99.0,99.0*1E
$GNGSA,A,1,,,,,,,,,,,,,99.0,99.0,99.0*1E
$GPG0,M,,*12,19,64,148,,13,57,321,,20,49,309,,06,37,055,*78
$GPGSV,3,2,12,17,36,145,,15,37,274,,24,28,217,,22,29,136,*7E
$GPGSV,3,3,12,30,25,058,,11,23,010,,14,19,121,,12,18,256,*77
$GLGSV,2,1,07,84,56,063,,73,32,134,,74,31,194,,72,28,258,*65
$GLGSV,2,2,07,85,28,005,,83,28,135,,71,28,318,,,,,*50
$GPGLL,1952.21561,S,04357.77099,W,211034.400,V,N*44
$PSTMCPU,63.77,-1,49*4A
$GPRMC,211034.600,V,1952.21561,S,04357.77099,W,0.0,0.0,140426,,,N*74
$GPGGA,211034.600,1952.21561,S,04357.77099,W,0,00,99.0,796.01,M,0,,,,,,,,,,99.0,99.0,99.0*1E
$GPG0,M,,*12,19,61,149,,13,55,325,,20,47,312,,06,39,058,*7D
$GPGSV,3,2,12,15,37,277,,17,34,145,,24,30,216,,22,28,134,*74
$GPGSV,3,3,12,30,24,056,,11,25,012,,12,18,254,,14,18,119,*74
$GLGSV,2,1,07,84,57,068,,73,32,131,,85,31,005,,74,31,192,*66
$GLGSV,2,2,07,72,28,261,,83,27,137,,71,25,320,,,,,*53
$GPGLL,1952.21561,S,04357.77099,W,211542.800,V,N*4C
$PSTMCPU,60.26,-1,49*4D
$GPRMC,211543.000,V,1952.21561,S,04357.77099,W,0.0,0.0,140426,,,N*77
$GPGGA,211543.000,1952.21561,S,04357.77099,W,0,00,99.0,796.01,M,0GSV,2,1543.200,V,1952.21561,S,04357.77099,W,0.0,0.0,140426,,,N*75
$GPGGA,211543.200,1952.21561,S,04357.77099,W,0,00,99.0,796.01,M,0.0,M,,*62
$GPVTG,0.0,T,,M,0.0,N,0.0,K,N*02
$GNGSA,A,1,,,,,,,,,,,,,99.0,99.0,99.0*1E
$GNGSA,A,1,,,,,,,,,,,,,99.0,99.0,99.0*1E
$GPGSV,3,1,12,19,61,149,,13,55,325,,20,47,312,,06,39,058,*7D
$GPGSV,3,2,12,15,37,277,,17,34,145,,24,30,216,,22,28,134,*74
$GPGSV,3,3,12,30,24,056,,11,25,012,,12,18,254,,14,18,119,*74
$GLGSV,2,1,07,84,57,068,,73,32,131,,85,31,005,,74,31,192,*66
$G,*74
2,07,72,28,261,,83,27,137,,71,25,320,,,,,*53
$GPGLL,1952.21561,S,04357.77099,W,211543.200,V,N*47
$PSTMCPU,60.26,-1,49*4D
$GPRMC,211543.400,V,1952.21561,S,04357.77099,W,0.0,0.0,140426,,,N*73
$GPGGA,211543.400,1952.21561,S,04357.77099,W,0,00,99.0,796.01,M,0.0,M,,*64
$GPVTG,0.0,T,,M,0.0,N,0.0,K,N*02
$GNGSA,A,1,,,,,,,,,,,,,99.0,99.0,99.0*1E
$GNGSA,A,1,,,,,,,,,,,,,99.0,99.0,99.0*1E
$GPGSV,3,1,12,19,61,149,,13,55,325,,20,47,312,,06,39,058,*7D
$GPGSV,3,2,12,15,37,277,,17,34,145,,24,30,216,,22,28,13,99.0,$GPGSV,3,3,12,30,24,056,,11,25,012,,12,18,254,,14,18,119,*74
$GLGSV,2,1,07,84,57,068,,73,32,131,,85,31,005,,74,31,192,*66
$GLGSV,2,2,07,72,28,261,,83,27,137,,71,25,320,,,,,*53
$GPGLL,1952.21561,S,04357.77099,W,211543.400,V,N*41
$PSTMCPU,67.74,-1,49*4D
$GPRMC,211543.600,V,1952.21561,S,04357.77099,W,0.0,0.0,140426,,,N*71
$GPGGA,211543.600,1952.21561,S,04357.77099,W,0,00,99.0,796.01,M,0.0,M,,*66
$GPVTG,0.0,T,,M,0.0,N,0.0,K,N*02
$GNGSA,A,1,,,,,,,,,,,,,99.0,99.0,99.0*1E
$GNGSA,A,1,,,,,,,,,,,,,99.,00,9999.0*1E
$GPGSV,3,1,12,19,61,149,,13,55,325,,20,47,312,,06,39,058,*7D
$GPGSV,3,2,12,15,37,277,,17,34,145,,24,30,216,,22,28,134,*74
$GPGSV,3,3,12,30,24,056,,11,25,012,,12,18,254,,14,18,119,*74
$GLGSV,2,1,07,84,57,068,,73,32,131,,85,31,005,,74,31,192,*66
$GLGSV,2,2,07,72,28,261,,83,27,137,,71,25,320,,,,,*53
$GPGLL,1952.21561,S,04357.77099,W,211543.600,V,N*43
$PSTMCPU,67.74,-1,49*4D
$GPRMC,211543.800,V,1952.21561,S,04357.77099,W,0.0,0.0,140426,,,N*7F
$GPGGA,211543.800,1952.21561,S,04357.77099,W,,,74,3,-1,49*4D
$GPRMC,211544.000,V,1952.21561,S,04357.77099,W,0.0,0.0,140426,,,N*70
$GPGGA,211544.000,1952.21561,S,04357.77099,W,0,00,99.0,796.01,M,0.0,M,,*67
$GPVTG,0.0,T,,M,0.0,N,0.0,K,N*02
$GNGSA,A,1,,,,,,,,,,,,,99.0,99.0,99.0*1E
$GNGSA,A,1,,,,,,,,,,,,,99.0,99.0,99.0*1E
$GPGSV,3,1,12,19,61,149,,13,55,325,,20,47,312,,06,39,058,*7D
$GPGSV,3,2,12,15,37,277,,17,34,145,,24,30,216,,22,28,134,*74
$GPGSV,3,3,12,30,24,056,,11,25,012,,12,18,254,,14,18,119,*74
$GLGSV,2,1,07,84,57,068,,73,32,131,,85,31,0024,30,1,192,*66
$GLGSV,2,2,07,72,28,261,,83,27,137,,71,25,320,,,,,*53
$GPGLL,1952.21561,S,04357.77099,W,211544.000,V,N*42
$PSTMCPU,67.74,-1,49*4D
$GPRMC,211544.200,V,1952.21561,S,04357.77099,W,0.0,0.0,140426,,,N*72
$GPGGA,211544.200,1952.21561,S,04357.77099,W,0,00,99.0,796.01,M,0.0,M,,*65
$GPVTG,0.0,T,,M,0.0,N,0.0,K,N*02
$GNGSA,A,1,,,,,,,,,,,,,99.0,99.0,99.0*1E
$GNGSA,A,1,,,,,,,,,,,,,99.0,99.0,99.0*1E
$GPGSV,3,1,12,19,61,149,,13,55,325,,20,47,312,,06,39,058,*7D
$GPGSV,3,2,12,15,37,277,,17,34,145,A,1,,,216,,22,28,134,*74
$GPGSV,3,3,12,30,24,056,,11,25,012,,12,18,254,,14,18,119,*74
$GLGSV,2,1,07,84,57,068,,73,32,131,,85,31,005,,74,32,191,*66
$GLGSV,2,2,07,72,28,261,,83,27,137,,71,25,320,,,,,*53
$GPGLL,1952.21561,S,04357.77099,W,211544.200,V,N*40
$PSTMCPU,67.74,-1,49*4D
$GPRMC,211544.400,V,1952.21561,S,04357.77099,W,0.0,0.0,140426,,,N*74
$GPGGA,211544.400,1952.21561,S,04357.77099,W,0,00,99.0,796.01,M,0.0,M,,*63
$GPVTG,0.0,T,,M,0.0,N,0.0,K,N*02
$GNGSA,A,1,,,,,,,,,,,,,99.0,99.0,99.0*1E
$GNGSA61,S,0,,,,,,,,,,99.0,99.0,99.0*1E
$GPGSV,3,1,12,19,61,149,,13,55,325,,20,47,312,,06,39,058,*7D
$GPGSV,3,2,12,15,37,277,,17,34,145,,24,30,216,,22,28,134,*74
$GPGSV,3,3,12,30,24,056,,11,25,012,,12,18,254,,14,18,119,*74
$GLGSV,2,1,07,84,57,068,,73,32,131,,85,31,005,,74,32,191,*66
$GLGSV,2,2,07,72,28,261,,83,27,137,,71,25,320,,,,,*53
$GPGLL,1952.21561,S,04357.77099,W,211544.400,V,N*46
$PSTMCPU,38.47,-1,49*47
$GPRMC,211544.600,V,1952.21561,S,04357.77099,W,0.0,0.0,140426,,,N*76
$GPGGA,211544.600,1952.21600,V,4357.77099,W,0,00,99.0,796.01,M,0.0,M,,*61
$GPVTG,0.0,T,,M,0.0,N,0.0,K,N*02
$GNGSA,A,1,,,,,,,,,,,,,99.0,99.0,99.0*1E
$GNGSA,A,1,,,,,,,,,,,,,99.0,99.0,99.0*1E
$GPGSV,3,1,12,19,61,149,,13,55,325,,20,47,312,,06,39,058,*7D
$GPGSV,3,2,12,15,37,277,,17,34,145,,24,30,216,,22,28,134,*74
$GPGSV,3,3,12,30,24,056,,11,25,012,,12,18,254,,14,18,119,*74
$GLGSV,2,1,07,84,57,068,,73,32,131,,85,31,005,,74,32,191,*66
$GLGSV,2,2,07,72,28,261,,83,27,137,,71,25,320,,,,,*53
$GPGLL,1952.21561,S,04357.77099,W,21154473,32,N*44
$PSTMCPU,38.47,-1,49*47
$GPRMC,211544.800,V,1952.21561,S,04357.77099,W,0.0,0.0,140426,,,N*78
$GPGGA,211544.800,1952.21561,S,04357.77099,W,0,00,99.0,796.01,M,0.0,M,,*6F
$GPVTG,0.0,T,,M,0.0,N,0.0,K,N*02
$GNGSA,A,1,,,,,,,,,,,,,99.0,99.0,99.0*1E
$GNGSA,A,1,,,,,,,,,,,,,99.0,99.0,99.0*1E
$GPGSV,3,1,12,19,61,149,,13,55,325,,20,47,312,,06,39,058,*7D
$GPGSV,3,2,12,15,37,277,,17,34,145,,24,30,216,,22,28,134,*74
$GPGSV,3,3,12,30,24,056,,11,25,012,,12,18,254,,14,18,119,*74
$GLGSV,2,1,07,84,57,068,,37,27131,,85,31,005,,74,32,191,*66
$GLGSV,2,2,07,72,28,261,,83,27,137,,71,25,320,,,,,*53
$GPGLL,1952.21561,S,04357.77099,W,211544.800,V,N*4A
$PSTMCPU,38.47,-1,49*47
$GPRMC,211545.000,V,1952.21561,S,04357.77099,W,0.0,0.0,140426,,,N*71
$GPGGA,211545.000,1952.21561,S,04357.77099,W,0,00,99.0,796.01,M,0.0,M,,*66
$GPVTG,0.0,T,,M,0.0,N,0.0,K,N*02
$GNGSA,A,1,,,,,,,,,,,,,99.0,99.0,99.0*1E
$GNGSA,A,1,,,,,,,,,,,,,99.0,99.0,99.0*1E
$GPGSV,3,1,12,19,61,149,,13,55,325,,20,47,312,,06,39,058,*7D
$GPGSV,3,2,12,19.0,997,,17,34,145,,24,30,216,,22,28,134,*74
$GPGSV,3,3,12,30,24,056,,11,25,012,,12,18,254,,14,18,119,*74
$GLGSV,2,1,07,84,57,068,,73,32,131,,85,31,005,,74,32,191,*66
$GLGSV,2,2,07,72,28,261,,83,27,137,,71,25,320,,,,,*53
$GPGLL,1952.21561,S,04357.77099,W,211545.000,V,N*43
$PSTMCPU,38.47,-1,49*47
$GPRMC,211545.200,V,1952.21561,S,04357.77099,W,0.0,0.0,140426,,,N*73
$GPGGA,211545.200,1952.21561,S,04357.77099,W,0,00,99.0,796.01,M,0.0,M,,*64
$GPVTG,0.0,T,,M,0.0,N,0.0,K,N*02
$GNGSA,A,1,,,,,,,,,,,,,99.0,,21154.0*1E
$GNGSA,A,1,,,,,,,,,,,,,99.0,99.0,99.0*1E
$GPGSV,3,1,12,19,61,149,,13,55,325,,20,47,312,,06,39,058,*7D
$GPGSV,3,2,12,15,37,277,,17,34,145,,24,30,216,,22,28,134,*74
$GPGSV,3,3,12,30,24,056,,11,25,012,,12,18,254,,14,18,119,*74
$GLGSV,2,1,07,84,57,068,,73,32,131,,85,31,005,,74,32,191,*66
$GLGSV,2,2,07,72,28,261,,83,27,137,,71,25,320,,,,,*53
$GPGLL,1952.21561,S,04357.77099,W,211545.200,V,N*41
$PSTMCPU,38.47,-1,49*47
$GPRMC,211545.400,V,1952.21561,S,04357.77099,W,0.0,0.0,140426,,,N*75
$GPGGV,2,1,7099,W,211545.400,V,N*47
$PSTMCPU,72.44,-1,49*4A
$GPRMC,211545.600,V,1952.21561,S,04357.77099,W,0.0,0.0,140426,,,N*77
$GPGGA,211545.600,1952.21561,S,04357.77099,W,0,00,99.0,796.01,M,0.0,M,,*60
$GPVTG,0.0,T,,M,0.0,N,0.0,K,N*02
$GNGSA,A,1,,,,,,,,,,,,,99.0,99.0,99.0*1E
$GNGSA,A,1,,,,,,,,,,,,,99.0,99.0,99.0*1E
$GPGSV,3,1,12,19,61,149,,13,55,325,,20,47,312,,06,39,058,*7D
$GPGSV,3,2,12,15,37,277,,17,34,145,,24,30,216,,22,28,134,*74
$GPGSV,3,3,12,30,24,056,,11,25,012,,12,18,254,,14,18,119,*74
$GLG7D
$G07,84,57,068,,73,32,131,,85,31,005,,74,32,191,*66
$GLGSV,2,2,07,72,28,261,,83,27,137,,71,25,320,,,,,*53
$GPGLL,1952.21561,S,04357.77099,W,211545.600,V,N*45
$PSTMCPU,72.44,-1,49*4A
$GPRMC,211545.800,V,1952.21561,S,04357.77099,W,0.0,0.0,140426,,,N*79
$GPGGA,211545.800,1952.21561,S,04357.77099,W,0,00,99.0,796.01,M,0.0,M,,*6E
$GPVTG,0.0,T,,M,0.0,N,0.0,K,N*02
$GNGSA,A,1,,,,,,,,,,,,,99.0,99.0,99.0*1E
$GNGSA,A,1,,,,,,,,,,,,,99.0,99.0,99.0*1E
$GPGSV,3,1,12,19,61,149,,13,55,325,,20,47,312,,06,39,058,1,,,,,PGSV,3,2,12,15,37,277,,17,34,145,,24,30,216,,22,28,134,*74
$GPGSV,3,3,12,30,24,056,,11,25,012,,12,18,254,,14,18,119,*74
$GLGSV,2,1,07,84,57,068,,73,32,131,,85,31,005,,74,32,191,*66
$GLGSV,2,2,07,72,28,261,,83,27,137,,71,25,320,,,,,*53
$GPGLL,1952.21561,S,04357.77099,W,211545.800,V,N*4B
$PSTMCPU,72.44,-1,49*4A
$GPRMC,211546.000,V,1952.21561,S,04357.77099,W,0.0,0.0,140426,,,N*72
$GPGGA,211546.000,1952.21561,S,04357.77099,W,0,00,99.0,796.01,M,0.0,M,,*65
$GPVTG,0.0,T,,M,0.0,N,0.0,K,N*02
$GNGSA,A40426,,,,,,,,,99.0,99.0,99.0*1E
$GNGSA,A,1,,,,,,,,,,,,,99.0,99.0,99.0*1E
$GPGSV,3,1,12,19,61,149,,13,55,325,,20,47,312,,06,39,058,*7D
$GPGSV,3,2,12,15,37,277,,17,34,145,,24,30,216,,22,28,134,*74
$GPGSV,3,3,12,30,24,056,,11,25,012,,12,18,254,,14,18,119,*74
$GLGSV,2,1,07,84,57,068,,73,32,131,,85,31,005,,74,32,191,*66
$GLGSV,2,2,07,72,28,261,,83,27,137,,71,25,320,,,,,*53
$GPGLL,1952.21561,S,04357.77099,W,211546.000,V,N*40
$PSTMCPU,72.44,-1,49*4A
$GPRMC,211546.200,V,1952.21561,S,04357.77099,W,0.0,0.0,14,18,1952.21561,S,04357.77099,W,211546.200,V,N*42
$PSTMCPU,72.44,-1,49*4A
$GPRMC,211546.400,V,1952.21561,S,04357.77099,W,0.0,0.0,140426,,,N*76
$GPGGA,211546.400,1952.21561,S,04357.77099,W,0,00,99.0,796.01,M,0.0,M,,*61
$GPVTG,0.0,T,,M,0.0,N,0.0,K,N*02
$GNGSA,A,1,,,,,,,,,,,,,99.0,99.0,99.0*1E
$GNGSA,A,1,,,,,,,,,,,,,99.0,99.0,99.0*1E
$GPGSV,3,1,12,19,61,149,,13,55,325,,20,47,312,,06,39,058,*7D
$GPGSV,3,2,12,15,37,277,,17,34,145,,24,30,216,,22,28,134,*74
$GPGSV,3,3,12,30,24,056,,11,25,012,,12,18,254,.0,K,N2,,06,39,058,*7D
$GPGSV,3,2,12,15,37,277,,17,34,145,,24,30,216,,22,28,134,*74
$GPGSV,3,3,12,30,24,056,,11,25,012,,12,18,254,,14,18,119,*74
$GLGSV,2,1,07,84,57,068,,73,32,131,,85,31,005,,74,32,191,*66
$GLGSV,2,2,07,72,28,261,,83,27,137,,71,25,320,,,,,*53
$GPGLL,1952.21561,S,04357.77099,W,211546.600,V,N*46
$PSTMCPU,42.69,-1,49*46
$GPRMC,211546.800,V,1952.21561,S,04357.77099,W,0.0,0.0,140426,,,N*7A
$GPGGA,211546.800,1952.21561,S,04357.77099,W,0,00,99.0,796.01,M,0.0,M,,*6D
$GPVTG,0.0,T,,M,0.0,N,57.770*02
$GNGSA,A,1,,,,,,,,,,,,,99.0,99.0,99.0*1E
$GNGSA,A,1,,,,,,,,,,,,,99.0,99.0,99.0*1E
$GPGSV,3,1,12,19,61,149,,13,55,325,,20,47,312,,06,39,058,*7D
$GPGSV,3,2,12,15,37,277,,17,34,145,,24,30,216,,22,28,134,*74
$GPGSV,3,3,12,30,24,056,,11,25,012,,12,18,254,,14,18,119,*74
$GLGSV,2,1,07,84,57,068,,73,32,131,,85,31,005,,74,32,191,*66
$GLGSV,2,2,07,72,28,261,,83,27,137,,71,25,320,,,,,*53
$GPGLL,1952.21561,S,04357.77099,W,211546.800,V,N*48
$PSTMCPU,42.69,-1,49*46
$GPRMC,211547.000,V,1952.21561,S,04,25,01320,,,,,*53
$GPGLL,1952.21561,S,04357.77099,W,211547.000,V,N*41
$PSTMCPU,42.69,-1,49*46
$GPRMC,211547.200,V,1952.21561,S,04357.77099,W,0.0,0.0,140426,,,N*71
$GPGGA,211547.200,1952.21561,S,04357.77099,W,0,00,99.0,796.01,M,0.0,M,,*66
$GPVTG,0.0,T,,M,0.0,N,0.0,K,N*02
$GNGSA,A,1,,,,,,,,,,,,,99.0,99.0,99.0*1E
$GNGSA,A,1,,,,,,,,,,,,,99.0,99.0,99.0*1E
$GPGSV,3,1,12,19,61,149,,13,55,325,,20,47,312,,06,39,058,*7D
$GPGSV,3,2,12,15,37,277,,17,34,145,,24,30,216,,22,28,134,*74
$GPGSV,3,3,12,30,24,056,,11,149,2,,12,18,254,,14,18,119,*74
$GLGSV,2,1,07,84,57,068,,73,32,131,,85,31,005,,74,32,191,*66
$GLGSV,2,2,07,72,28,261,,83,27,137,,71,25,320,,,,,*53
$GPGLL,1952.21561,S,04357.77099,W,211547.200,V,N*43
$PSTMCPU,42.69,-1,49*46
$GPRMC,211547.400,V,1952.21561,S,04357.77099,W,0.0,0.0,140426,,,N*77
$GPGGA,211547.400,1952.21561,S,04357.77099,W,0,00,99.0,796.01,M,0.0,M,,*60
$GPVTG,0.0,T,,M,0.0,N,0.0,K,N*02
$GNGSA,A,1,,,,,,,,,,,,,99.0,99.0,99.0*1E
$GNGSA,A,1,,,,,,,,,,,,,99.0,99.0,99.0*1E
$GPGSV,3,1,12,19,VTG,0.,13,55,325,,20,47,312,,06,39,058,*7D
$GPGSV,3,2,12,15,37,277,,17,34,145,,24,30,216,,22,28,134,*74
$GPGSV,3,3,12,30,24,056,,11,25,012,,12,18,254,,14,18,119,*74
$GLGSV,2,1,07,84,57,068,,73,32,131,,85,31,005,,74,32,191,*66
$GLGSV,2,2,07,72,28,261,,83,27,137,,71,25,320,,,,,*53
$GPGLL,1952.21561,S,04357.77099,W,211547.400,V,N*45
$PSTMCPU,67.25,-1,49*49
$GPRMC,211547.600,V,1952.21561,S,04357.77099,W,0.0,0.0,140426,,,N*75
$GPGGA,211547.600,1952.21561,S,04357.77099,W,0,00,99.0,796.01,M,0.0,M,,*62
$G0,V,190,T,,M,0.0,N,0.0,K,N*02
$GNGSA,A,1,,,,,,,,,,,,,99.0,99.0,99.0*1E
$GNGSA,A,1,,,,,,,,,,,,,99.0,99.0,99.0*1E
$GPGSV,3,1,12,19,61,149,,13,55,325,,20,47,312,,06,39,058,*7D
$GPGSV,3,2,12,15,37,277,,17,34,145,,24,30,216,,22,28,134,*74
$GPGSV,3,3,12,30,24,056,,11,25,012,,12,18,254,,14,18,119,*74
$GLGSV,2,1,07,84,57,068,,73,32,131,,85,31,005,,74,32,191,*66
$GLGSV,2,2,07,72,28,261,,83,27,137,,71,25,320,,,,,*53
$GPGLL,1952.21561,S,04357.77099,W,211547.600,V,N*47
$PSTMCPU,67.25,-1,49*49
$GPRMC,211547.83,3,121,,83,27,137,,71,25,320,,,,,*53
$GPGLL,1952.21561,S,04357.77099,W,211547.800,V,N*49
$PSTMCPU,67.25,-1,49*49
$GPRMC,211548.000,V,1952.21561,S,04357.77099,W,0.0,0.0,140426,,,N*7C
$GPGGA,211548.000,1952.21561,S,04357.77099,W,0,00,99.0,796.01,M,0.0,M,,*6B
$GPVTG,0.0,T,,M,0.0,N,0.0,K,N*02
$GNGSA,A,1,,,,,,,,,,,,,99.0,99.0,99.0*1E
$GNGSA,A,1,,,,,,,,,,,,,99.0,99.0,99.0*1E
$GPGSV,3,1,12,19,61,149,,13,55,325,,20,47,312,,06,39,058,*7D
$GPGSV,3,2,12,15,37,277,,17,34,145,,24,30,216,,22,28,134,*74
$GPGSV
3,12,30,24,056,,11,25,012,,12,18,254,,14,18,119,*74
$GLGSV,2,1,07,84,57,068,,73,32,131,,85,31,005,,74,32,191,*66
$GLGSV,2,2,07,72,28,261,,83,27,137,,71,25,320,,,,,*53
$GPGLL,1952.21561,S,04357.77099,W,211548.000,V,N*4E
$PSTMCPU,67.25,-1,49*49
$GPRMC,211548.200,V,1952.21561,S,04357.77099,W,0.0,0.0,140426,,,N*7E
$GPGGA,211548.200,1952.21561,S,04357.77099,W,0,00,99.0,796.01,M,0.0,M,,*69
$GPVTG,0.0,T,,M,0.0,N,0.0,K,N*02
$GNGSA,A,1,,,,,,,,,,,,,99.0,99.0,99.0*1E
$GNGSA,A,1,,,,,,,,,,,,,99.0,99.0,99.0*101,M,0SV,3,1,12,19,61,149,,13,55,325,,20,47,312,,06,39,058,*7D
$GPGSV,3,2,12,15,37,277,,17,34,145,,24,30,216,,22,28,134,*74
$GPGSV,3,3,12,30,24,056,,11,25,012,,12,18,254,,14,18,119,*74
$GLGSV,2,1,07,84,57,068,,73,32,131,,85,31,005,,74,32,191,*66
$GLGSV,2,2,07,72,28,261,,83,27,137,,71,25,320,,,,,*53
$GPGLL,1952.21561,S,04357.77099,W,211548.200,V,N*4C
$PSTMCPU,62.05,-1,49*4E
$GPRMC,211548.400,V,1952.21561,S,04357.77099,W,0.0,0.0,140426,,,N*78
$GPGGA,211548.400,1952.21561,S,04357.77099,W,0,00,99.0,79666
$GPRMC,211548.600,V,1952.21561,S,04357.77099,W,0.0,0.0,140426,,,N*7A
$GPGGA,211548.600,1952.21561,S,04357.77099,W,0,00,99.0,796.01,M,0.0,M,,*6D
$GPVTG,0.0,T,,M,0.0,N,0.0,K,N*02
$GNGSA,A,1,,,,,,,,,,,,,99.0,99.0,99.0*1E
$GNGSA,A,1,,,,,,,,,,,,,99.0,99.0,99.0*1E
$GPGSV,3,1,12,19,61,149,,13,55,325,,20,47,312,,06,39,058,*7D
$GPGSV,3,2,12,15,37,277,,17,34,145,,24,30,216,,22,28,134,*74
$GPGSV,3,3,12,30,24,056,,11,25,012,,12,18,254,,14,18,119,*74
$GLGSV,2,1,07,84,57,068,,73,32,131,,85,31,005,,74,32,191,,28,13LGSV,2,2,07,72,28,261,,83,27,137,,71,25,320,,,,,*53
$GPGLL,1952.21561,S,04357.77099,W,211548.600,V,N*48
$PSTMCPU,62.05,-1,49*4E
$GPRMC,211548.800,V,1952.21561,S,04357.77099,W,0.0,0.0,140426,,,N*74
$GPGGA,211548.800,1952.21561,S,04357.77099,W,0,00,99.0,796.01,M,0.0,M,,*63
$GPVTG,0.0,T,,M,0.0,N,0.0,K,N*02
$GNGSA,A,1,,,,,,,,,,,,,99.0,99.0,99.0*1E
$GNGSA,A,1,,,,,,,,,,,,,99.0,99.0,99.0*1E
$GPGSV,3,1,12,19,61,149,,13,55,325,,20,47,312,,06,39,058,*7D
$GPGSV,3,2,12,15,37,277,,17,34,145,,24,30,216,,2,,,99.4,*74
$GPGSV,3,3,12,30,24,056,,11,25,012,,12,18,254,,14,18,119,*74
$GLGSV,2,1,07,84,57,068,,73,32,131,,85,31,005,,74,32,191,*66
$GLGSV,2,2,07,72,28,261,,83,27,137,,71,25,320,,,,,*53
$GPGLL,1952.21561,S,04357.77099,W,211548.800,V,N*46
$PSTMCPU,62.05,-1,49*4E
$GPRMC,211549.000,V,1952.21561,S,04357.77099,W,0.0,0.0,140426,,,N*7D
$GPGGA,211549.000,1952.21561,S,04357.77099,W,0,00,99.0,796.01,M,0.0,M,,*6A
$GPVTG,0.0,T,,M,0.0,N,0.0,K,N*02
$GNGSA,A,1,,,,,,,,,,,,,99.0,99.0,99.0*1E
$GNGSA,A,1,,,,,,,,,099,W,0,99.0,99.0*1E
$GPGSV,3,1,12,19,61,149,,13,55,325,,20,47,312,,06,39,058,*7D
$GPGSV,3,2,12,15,37,277,,17,34,145,,24,30,216,,22,28,134,*74
$GPGSV,3,3,12,30,24,056,,11,25,012,,12,18,254,,14,18,119,*74
$GLGSV,2,1,07,84,57,068,,73,32,131,,85,31,005,,74,32,191,*66
$GLGSV,2,2,07,72,28,261,,83,27,137,,71,25,320,,,,,*53
$GPGLL,1952.21561,S,04357.77099,W,211549.000,V,N*4F
$PSTMCPU,62.05,-1,49*4E
$GPRMC,211549.200,V,1952.21561,S,04357.77099,W,0.0,0.0,140426,,,N*7F
$GPGGA,211549.200,1952.21561,S,04357.7,31,00U,62.05,-1,49*4E
$GPRMC,211549.400,V,1952.21561,S,04357.77099,W,0.0,0.0,140426,,,N*79
$GPGGA,211549.400,1952.21561,S,04357.77099,W,0,00,99.0,796.01,M,0.0,M,,*6E
$GPVTG,0.0,T,,M,0.0,N,0.0,K,N*02
$GNGSA,A,1,,,,,,,,,,,,,99.0,99.0,99.0*1E
$GNGSA,A,1,,,,,,,,,,,,,99.0,99.0,99.0*1E
$GPGSV,3,1,12,19,61,149,,13,55,325,,20,47,312,,06,39,058,*7D
$GPGSV,3,2,12,15,37,277,,17,34,145,,24,30,216,,22,28,134,*74
$GPGSV,3,3,12,11,25,012,,30,24,056,,12,18,254,,14,18,119,*74
$GLGSV,2,1,07,84,57,068,,73,32,131,,84,145,5,,74,32,191,*66
$GLGSV,2,2,07,72,28,261,,83,27,137,,71,25,320,,,,,*53
$GPGLL,1952.21561,S,04357.77099,W,211549.400,V,N*4B
$PSTMCPU,43.27,-1,49*4D
$GPRMC,211549.600,V,1952.21561,S,04357.77099,W,0.0,0.0,140426,,,N*7B
$GPGGA,211549.600,1952.21561,S,04357.77099,W,0,00,99.0,796.01,M,0.0,M,,*6C
$GPVTG,0.0,T,,M,0.0,N,0.0,K,N*02
$GNGSA,A,1,,,,,,,,,,,,,99.0,99.0,99.0*1E
$GNGSA,A,1,,,,,,,,,,,,,99.0,99.0,99.0*1E
$GPGSV,3,1,12,19,61,149,,13,55,325,,20,47,312,,06,39,058,*7D
$GPGSV,3,2,12,15,37,277,,17,$GNGSA,24,30,216,,22,28,134,*74
$GPGSV,3,3,12,11,25,012,,30,24,056,,12,18,254,,14,18,119,*74
$GLGSV,2,1,07,84,57,068,,73,32,131,,85,31,005,,74,32,191,*66
$GLGSV,2,2,07,72,28,261,,83,27,137,,71,25,320,,,,,*53
$GPGLL,1952.21561,S,04357.77099,W,211549.600,V,N*49
$PSTMCPU,43.27,-1,49*4D
$GPRMC,211549.800,V,1952.21561,S,04357.77099,W,0.0,0.0,140426,,,N*75
$GPGGA,211549.800,1952.21561,S,04357.77099,W,0,00,99.0,796.01,M,0.0,M,,*62
$GPVTG,0.0,T,,M,0.0,N,0.0,K,N*02
$GNGSA,A,1,,,,,,,,,,,,,99.0,99.0,99.0*1E952.21,A,1,,,,,,,,,,,,,99.0,99.0,99.0*1E
$GPGSV,3,1,12,19,61,149,,13,55,325,,20,47,312,,06,39,058,*7D
$GPGSV,3,2,12,15,37,277,,17,34,145,,24,30,216,,22,28,134,*74
$GPGSV,3,3,12,11,25,012,,30,24,056,,12,18,254,,14,18,119,*74
$GLGSV,2,1,07,84,57,068,,73,32,131,,85,31,005,,74,32,191,*66
$GLGSV,2,2,07,72,28,261,,83,27,137,,71,25,320,,,,,*53
$GPGLL,1952.21561,S,04357.77099,W,211549.800,V,N*47
$PSTMCPU,43.27,-1,49*4D
$GPRMC,211550.000,V,1952.21561,S,04357.77099,W,0.0,0.0,140426,,,N*75
$GPGGA,211550.000,7,068,.000,V,N*47
$PSTMCPU,43.27,-1,49*4D
$GPRMC,211550.200,V,1952.21561,S,04357.77099,W,0.0,0.0,140426,,,N*77
$GPGGA,211550.200,1952.21561,S,04357.77099,W,0,00,99.0,796.01,M,0.0,M,,*60
$GPVTG,0.0,T,,M,0.0,N,0.0,K,N*02
$GNGSA,A,1,,,,,,,,,,,,,99.0,99.0,99.0*1E
$GNGSA,A,1,,,,,,,,,,,,,99.0,99.0,99.0*1E
$GPGSV,3,1,12,19,61,149,,13,55,325,,20,47,312,,06,39,058,*7D
$GPGSV,3,2,12,15,37,277,,17,34,145,,24,30,216,,22,28,134,*74
$GPGSV,3,3,12,11,25,012,,30,24,056,,12,18,254,,14,18,119,*74
$GLGSV,2,1,07,84,2,12,1,73,32,131,,85,31,005,,74,32,191,*66
$GLGSV,2,2,07,72,28,261,,83,27,137,,71,25,320,,,,,*53
$GPGLL,1952.21561,S,04357.77099,W,211550.200,V,N*45
$PSTMCPU,43.27,-1,49*4D
$GPRMC,211550.400,V,1952.21561,S,04357.77099,W,0.0,0.0,140426,,,N*71
$GPGGA,211550.400,1952.21561,S,04357.77099,W,0,00,99.0,796.01,M,0.0,M,,*66
$GPVTG,0.0,T,,M,0.0,N,0.0,K,N*02
$GNGSA,A,1,,,,,,,,,,,,,99.0,99.0,99.0*1E
$GNGSA,A,1,,,,,,,,,,,,,99.0,99.0,99.0*1E
$GPGSV,3,1,12,19,61,149,,13,55,325,,20,47,312,,06,39,058,*7D
$GPGSV,3,99.0,5,37,277,,17,34,145,,24,30,216,,22,28,134,*74
$GPGSV,3,3,12,11,25,012,,30,24,056,,12,18,254,,14,18,119,*74
$GLGSV,2,1,07,84,57,068,,73,32,131,,85,31,005,,74,32,191,*66
$GLGSV,2,2,07,72,28,261,,83,27,137,,71,25,320,,,,,*53
$GPGLL,1952.21561,S,04357.77099,W,211550.400,V,N*43
$PSTMCPU,54.58,-1,49*43
$GPRMC,211550.600,V,1952.21561,S,04357.77099,W,0.0,0.0,140426,,,N*73
$GPGGA,211550.600,1952.21561,S,04357.77099,W,0,00,99.0,796.01,M,0.0,M,,*64
$GPVTG,0.0,T,,M,0.0,N,0.0,K,N*02
$GNGSA,A,1,,,,,,,,,,,
$GPGG99.0,99.0*1E
$GNGSA,A,1,,,,,,,,,,,,,99.0,99.0,99.0*1E
$GPGSV,3,1,12,19,61,149,,13,55,325,,20,47,312,,06,39,058,*7D
$GPGSV,3,2,12,15,37,277,,17,34,145,,24,30,216,,22,28,134,*74
$GPGSV,3,3,12,11,25,012,,30,24,056,,12,18,254,,14,18,119,*74
$GLGSV,2,1,07,84,57,068,,73,32,131,,85,31,005,,74,32,191,*66
$GLGSV,2,2,07,72,28,261,,83,27,137,,71,25,320,,,,,*53
$GPGLL,1952.21561,S,04357.77099,W,211550.600,V,N*41
$PSTMCPU,54.58,-1,49*43
$GPRMC,211550.800,V,1952.21561,S,04357.77099,W,0.0,0.0,140426,,,N*7D
$GLG04357.77099,W,211550.800,V,N*4F
$PSTMCPU,54.58,-1,49*43
$GPRMC,211551.000,V,1952.21561,S,04357.77099,W,0.0,0.0,140426,,,N*74
$GPGGA,211551.000,1952.21561,S,04357.77099,W,0,00,99.0,796.01,M,0.0,M,,*63
$GPVTG,0.0,T,,M,0.0,N,0.0,K,N*02
$GNGSA,A,1,,,,,,,,,,,,,99.0,99.0,99.0*1E
$GNGSA,A,1,,,,,,,,,,,,,99.0,99.0,99.0*1E
$GPGSV,3,1,12,19,61,149,,13,55,325,,20,47,312,,06,39,058,*7D
$GPGSV,3,2,12,15,37,277,,17,34,145,,24,30,216,,22,28,134,*74
$GPGSV,3,3,12,11,25,012,,30,24,056,,12,18,254,,14,18,119,*79,058,SV,2,1,07,84,57,068,,73,32,131,,85,31,005,,74,32,191,*66
$GLGSV,2,2,07,72,28,261,,83,27,137,,71,25,320,,,,,*53
$GPGLL,1952.21561,S,04357.77099,W,211551.000,V,N*46
$PSTMCPU,54.58,-1,49*43
$GPRMC,211551.200,V,1952.21561,S,04357.77099,W,0.0,0.0,140426,,,N*76
$GPGGA,211551.200,1952.21561,S,04357.77099,W,0,00,99.0,796.01,M,0.0,M,,*61
$GPVTG,0.0,T,,M,0.0,N,0.0,K,N*02
$GNGSA,A,1,,,,,,,,,,,,,99.0,99.0,99.0*1E
$GNGSA,A,1,,,,,,,,,,,,,99.0,99.0,99.0*1E
$GPGSV,3,1,12,19,61,149,,13,55,325,,20,47,312,,06,NGSA,A*7D
$GPGSV,3,2,12,15,37,277,,17,34,145,,24,30,216,,22,28,134,*74
$GPGSV,3,3,12,11,25,012,,30,24,056,,12,18,254,,14,18,119,*74
$GLGSV,2,1,07,84,57,068,,73,32,131,,85,31,005,,74,32,191,*66
$GLGSV,2,2,07,72,28,261,,83,27,137,,71,25,320,,,,,*53
$GPGLL,1952.21561,S,04357.77099,W,211551.200,V,N*44
$PSTMCPU,54.58,-1,49*43
$GPRMC,211551.400,V,1952.21561,S,04357.77099,W,0.0,0.0,140426,,,N*70
$GPGGA,211551.400,1952.21561,S,04357.77099,W,0,00,99.0,796.01,M,0.0,M,,*67
$GPVTG,0.0,T,,M,0.0,N,0.0,K,N*02
$0,0.0,,1,,,,,,,,,,,,,99.0,99.0,99.0*1E
$GNGSA,A,1,,,,,,,,,,,,,99.0,99.0,99.0*1E
$GPGSV,3,1,12,19,61,149,,13,55,325,,20,47,312,,06,39,058,*7D
$GPGSV,3,2,12,15,37,277,,17,34,145,,24,30,216,,22,28,134,*74
$GPGSV,3,3,12,11,25,012,,30,24,056,,12,18,254,,14,18,119,*74
$GLGSV,2,1,07,84,57,068,,73,32,131,,85,31,005,,74,32,191,*66
$GLGSV,2,2,07,72,28,261,,83,27,137,,71,25,320,,,,,*53
$GPGLL,1952.21561,S,04357.77099,W,211551.400,V,N*42
$PSTMCPU,43.00,-1,49*48
$GPRMC,211551.600,V,1952.21561,S,04357.77099,W,08,254,$GPGLL,1952.21561,S,04357.77099,W,211551.600,V,N*40
$PSTMCPU,43.00,-1,49*48
$GPRMC,211551.800,V,1952.21561,S,04357.77099,W,0.0,0.0,140426,,,N*7C
$GPGGA,211551.800,1952.21561,S,04357.77099,W,0,00,99.0,796.01,M,0.0,M,,*6B
$GPVTG,0.0,T,,M,0.0,N,0.0,K,N*02
$GNGSA,A,1,,,,,,,,,,,,,99.0,99.0,99.0*1E
$GNGSA,A,1,,,,,,,,,,,,,99.0,99.0,99.0*1E
$GPGSV,3,1,12,19,61,149,,13,55,325,,20,47,312,,06,39,058,*7D
$GPGSV,3,2,12,15,37,277,,17,34,145,,24,30,216,,22,28,134,*74
$GPGSV,3,3,12,11,25,012,,30,24,056,,12,325,,2,14,18,119,*74
$GLGSV,2,1,07,84,57,068,,73,32,131,,85,31,005,,74,32,191,*66
$GLGSV,2,2,07,72,28,261,,83,27,137,,71,25,320,,,,,*53
$GPGLL,1952.21561,S,04357.77099,W,211551.800,V,N*4E
$PSTMCPU,43.00,-1,49*48
$GPRMC,211552.000,V,1952.21561,S,04357.77099,W,0.0,0.0,140426,,,N*77
$GPGGA,211552.000,1952.21561,S,04357.77099,W,0,00,99.0,796.01,M,0.0,M,,*60
$GPVTG,0.0,T,,M,0.0,N,0.0,K,N*02
$GNGSA,A,1,,,,,,,,,,,,,99.0,99.0,99.0*1E
$GNGSA,A,1,,,,,,,,,,,,,99.0,99.0,99.0*1E
$GPGSV,3,1,12,19,61,149,,13,550.0,N,0,47,312,,06,39,058,*7D
$GPGSV,3,2,12,15,37,277,,17,34,145,,24,30,216,,22,28,134,*74
$GPGSV,3,3,12,11,25,012,,30,24,056,,12,18,254,,14,18,119,*74
$GLGSV,2,1,07,84,57,068,,73,32,131,,85,31,005,,74,32,191,*66
$GLGSV,2,2,07,72,28,261,,83,27,137,,71,25,320,,,,,*53
$GPGLL,1952.21561,S,04357.77099,W,211552.000,V,N*45
$PSTMCPU,43.00,-1,49*48
$GPRMC,211552.200,V,1952.21561,S,04357.77099,W,0.0,0.0,140426,,,N*75
$GPGGA,211552.200,1952.21561,S,04357.77099,W,0,00,99.0,796.01,M,0.0,M,,*62
$GPVTG,0.0,T,,M1,S,040.0,K,N*02
$GNGSA,A,1,,,,,,,,,,,,,99.0,99.0,99.0*1E
$GNGSA,A,1,,,,,,,,,,,,,99.0,99.0,99.0*1E
$GPGSV,3,1,12,19,61,149,,13,55,325,,20,47,312,,06,39,058,*7D
$GPGSV,3,2,12,15,37,277,,17,34,145,,24,30,216,,22,28,134,*74
$GPGSV,3,3,12,11,25,012,,30,24,056,,12,18,254,,14,18,119,*74
$GLGSV,2,1,07,84,57,068,,73,32,131,,85,31,005,,74,32,191,*66
$GLGSV,2,2,07,72,28,261,,83,27,137,,71,25,320,,,,,*53
$GPGLL,1952.21561,S,04357.77099,W,211552.200,V,N*47
$PSTMCPU,43.00,-1,49*48
$GPRMC,211552.400,V,1952.215012,,3,71,25,320,,,,,*53
$GPGLL,1952.21561,S,04357.77099,W,211552.400,V,N*41
$PSTMCPU,48.48,-1,49*4F
$GPRMC,211552.600,V,1952.21561,S,04357.77099,W,0.0,0.0,140426,,,N*71
$GPGGA,211552.600,1952.21561,S,04357.77099,W,0,00,99.0,796.01,M,0.0,M,,*66
$GPVTG,0.0,T,,M,0.0,N,0.0,K,N*02
$GNGSA,A,1,,,,,,,,,,,,,99.0,99.0,99.0*1E
$GNGSA,A,1,,,,,,,,,,,,,99.0,99.0,99.0*1E
$GPGSV,3,1,12,19,61,149,,13,55,325,,20,47,312,,06,39,058,*7D
$GPGSV,3,2,12,15,37,277,,17,34,145,,24,30,216,,22,28,134,*74
$GPGSV,3,3,12,11,2512,19,0,24,056,,12,18,254,,14,18,119,*74
$GLGSV,2,1,07,84,57,068,,73,32,131,,85,31,005,,74,32,191,*66
$GLGSV,2,2,07,72,28,261,,83,27,137,,71,25,320,,,,,*53
$GPGLL,1952.21561,S,04357.77099,W,211552.600,V,N*43
$PSTMCPU,48.48,-1,49*4F
$GPRMC,211552.800,V,1952.21561,S,04357.77099,W,0.0,0.0,140426,,,N*7F
$GPGGA,211552.800,1952.21561,S,04357.77099,W,0,00,99.0,796.01,M,0.0,M,,*68
$GPVTG,0.0,T,,M,0.0,N,0.0,K,N*02
$GNGSA,A,1,,,,,,,,,,,,,99.0,99.0,99.0*1E
$GNGSA,A,1,,,,,,,,,,,,,99.0,99.0,99.0*1E
$GPGSV,3,161
$G61,149,,13,55,325,,20,47,312,,06,39,058,*7D
$GPGSV,3,2,12,15,37,277,,17,34,145,,24,30,216,,22,28,134,*74
$GPGSV,3,3,12,11,25,012,,30,24,056,,12,18,254,,14,18,119,*74
$GLGSV,2,1,07,84,57,068,,73,32,131,,85,31,005,,74,32,191,*66
$GLGSV,2,2,07,72,28,261,,83,27,137,,71,25,320,,,,,*53
$GPGLL,1952.21561,S,04357.77099,W,211552.800,V,N*4D
$PSTMCPU,48.48,-1,49*4F
$GPRMC,211553.000,V,1952.21561,S,04357.77099,W,0.0,0.0,140426,,,N*76
$GPGGA,211553.000,1952.21561,S,04357.77099,W,0,00,99.0,796.01,M,0.0,M,,1553.2PVTG,0.0,T,,M,0.0,N,0.0,K,N*02
$GNGSA,A,1,,,,,,,,,,,,,99.0,99.0,99.0*1E
$GNGSA,A,1,,,,,,,,,,,,,99.0,99.0,99.0*1E
$GPGSV,3,1,12,19,61,149,,13,55,325,,20,47,312,,06,39,058,*7D
$GPGSV,3,2,12,15,37,277,,17,34,145,,24,30,216,,22,28,134,*74
$GPGSV,3,3,12,11,25,012,,30,24,056,,12,18,254,,14,18,119,*74
$GLGSV,2,1,07,84,57,068,,73,32,131,,85,31,005,,74,32,191,*66
$GLGSV,2,2,07,72,28,261,,83,27,137,,71,25,320,,,,,*53
$GPGLL,1952.21561,S,04357.77099,W,211553.000,V,N*44
$PSTMCPU,48.48,-1,49*4F
$GPRMC,22,07,700,V,1952.21561,S,04357.77099,W,0.0,0.0,140426,,,N*74
$GPGGA,211553.200,1952.21561,S,04357.77099,W,0,00,99.0,796.01,M,0.0,M,,*63
$GPVTG,0.0,T,,M,0.0,N,0.0,K,N*02
$GNGSA,A,1,,,,,,,,,,,,,99.0,99.0,99.0*1E
$GNGSA,A,1,,,,,,,,,,,,,99.0,99.0,99.0*1E
$GPGSV,3,1,12,19,61,149,,13,55,325,,20,47,312,,06,39,058,*7D
$GPGSV,3,2,12,15,37,277,,17,34,145,,24,30,216,,22,28,134,*74
$GPGSV,3,3,12,11,25,012,,30,24,056,,12,18,254,,14,18,119,*74
$GLGSV,2,1,07,84,57,068,,73,32,131,,85,31,005,,74,32,191,*66
$GLGSV,2$GPGSV2,28,261,,83,27,137,,71,25,320,,,,,*53
$GPGLL,1952.21561,S,04357.77099,W,211553.200,V,N*46
$PSTMCPU,48.48,-1,49*4F
$GPRMC,211553.400,V,1952.21561,S,04357.77099,W,0.0,0.0,140426,,,N*72
$GPGGA,211553.400,1952.21561,S,04357.77099,W,0,00,99.0,796.01,M,0.0,M,,*65
$GPVTG,0.0,T,,M,0.0,N,0.0,K,N*02
$GNGSA,A,1,,,,,,,,,,,,,99.0,99.0,99.0*1E
$GNGSA,A,1,,,,,,,,,,,,,99.0,99.0,99.0*1E
$GPGSV,3,1,12,19,61,149,,13,55,325,,20,47,312,,06,39,058,*7D
$GPGSV,3,2,12,15,37,277,,17,34,145,,24,30,216,,22,28,134,*7499.0*1,3,3,12,11,25,012,,30,24,056,,12,18,254,,14,18,119,*74
$GLGSV,2,1,07,84,57,068,,73,32,131,,85,31,005,,74,32,191,*66
$GLGSV,2,2,07,72,28,261,,83,27,137,,71,25,320,,,,,*53
$GPGLL,1952.21561,S,04357.77099,W,211553.400,V,N*40
$PSTMCPU,65.54,-1,49*4D
$GPRMC,211553.600,V,1952.21561,S,04357.77099,W,0.0,0.0,140426,,,N*70
$GPGGA,211553.600,1952.21561,S,04357.77099,W,0,00,99.0,796.01,M,0.0,M,,*67
$GPVTG,0.0,T,,M,0.0,N,0.0,K,N*02
$GNGSA,A,1,,,,,,,,,,,,,99.0,99.0,99.0*1E
$GNGSA,A,1,,,,,,,,,,,,,99.0,99.0.0,796E
$GPGSV,3,1,12,19,61,149,,13,55,325,,20,47,312,,06,39,058,*7D
$GPGSV,3,2,12,15,37,277,,17,34,145,,24,30,216,,22,28,134,*74
$GPGSV,3,3,12,11,25,012,,30,24,056,,12,18,254,,14,18,119,*74
$GLGSV,2,1,07,84,57,068,,73,32,131,,85,31,005,,74,32,191,*66
$GLGSV,2,2,07,72,28,261,,83,27,137,,71,25,320,,,,,*53
$GPGLL,1952.21561,S,04357.77099,W,211553.600,V,N*42
$PSTMCPU,65.54,-1,49*4D
$GPRMC,211553.800,V,1952.21561,S,04357.77099,W,0.0,0.0,140426,,,N*7E
$GPGGA,211553.800,1952.21561,S,04357.77099,W,0,00,92,191,*4D
$GPRMC,211554.000,V,1952.21561,S,04357.77099,W,0.0,0.0,140426,,,N*71
$GPGGA,211554.000,1952.21561,S,04357.77099,W,0,00,99.0,796.01,M,0.0,M,,*66
$GPVTG,0.0,T,,M,0.0,N,0.0,K,N*02
$GNGSA,A,1,,,,,,,,,,,,,99.0,99.0,99.0*1E
$GNGSA,A,1,,,,,,,,,,,,,99.0,99.0,99.0*1E
$GPGSV,3,1,12,19,61,149,,13,55,325,,20,47,312,,06,39,058,*7D
$GPGSV,3,2,12,15,37,277,,17,34,145,,24,30,216,,22,28,134,*74
$GPGSV,3,3,12,11,25,012,,30,24,056,,12,18,254,,14,18,119,*74
$GLGSV,2,1,07,84,57,068,,73,32,131,,85,31,005,,74,216,,2*66
$GLGSV,2,2,07,72,28,261,,83,27,137,,71,25,320,,,,,*53
$GPGLL,1952.21561,S,04357.77099,W,211554.000,V,N*43
$PSTMCPU,65.54,-1,49*4D
$GPRMC,211554.200,V,1952.21561,S,04357.77099,W,0.0,0.0,140426,,,N*73
$GPGGA,211554.200,1952.21561,S,04357.77099,W,0,00,99.0,796.01,M,0.0,M,,*64
$GPVTG,0.0,T,,M,0.0,N,0.0,K,N*02
$GNGSA,A,1,,,,,,,,,,,,,99.0,99.0,99.0*1E
$GNGSA,A,1,,,,,,,,,,,,,99.0,99.0,99.0*1E
$GPGSV,3,1,12,19,61,149,,13,55,325,,20,47,312,,06,39,058,*7D
$GPGSV,3,2,12,15,37,277,,17,34,145,,24,30,,,,,,2,28,134,*74
$GPGSV,3,3,12,11,25,012,,30,24,056,,12,18,254,,14,18,119,*74
$GLGSV,2,1,07,84,57,068,,73,32,131,,85,31,005,,74,32,191,*66
$GLGSV,2,2,07,72,28,261,,83,27,137,,71,25,320,,,,,*53
$GPGLL,1952.21561,S,04357.77099,W,211554.200,V,N*41
$PSTMCPU,65.54,-1,49*4D
$GPRMC,211554.400,V,1952.21561,S,04357.77099,W,0.0,0.0,140426,,,N*75
$GPGGA,211554.400,1952.21561,S,04357.77099,W,0,00,99.0,796.01,M,0.0,M,,*62
$GPVTG,0.0,T,,M,0.0,N,0.0,K,N*02
$GNGSA,A,1,,,,,,,,,,,,,99.0,99.0,99.0*1E
$GNGSA,A,1,,4357.7,,,,99.0,99.0,99.0*1E
$GPGSV,3,1,12,19,61,149,,13,55,325,,20,47,312,,06,39,058,*7D
$GPGSV,3,2,12,15,37,277,,17,34,145,,24,30,216,,22,28,134,*74
$GPGSV,3,3,12,11,25,012,,30,24,056,,12,18,254,,14,18,119,*74
$GLGSV,2,1,07,84,57,068,,73,32,131,,85,31,005,,74,32,191,*66
$GLGSV,2,2,07,72,28,261,,83,27,137,,71,25,320,,,,,*53
$GPGLL,1952.21561,S,04357.77099,W,211554.400,V,N*47
$PSTMCPU,44.12,-1,49*4C
$GPRMC,211554.600,V,1952.21561,S,04357.77099,W,0.0,0.0,140426,,,N*77
$GPGGA,211554.600,1952.21561,S,N*45
7099,W,0,00,99.0,796.01,M,0.0,M,,*60
$GPVTG,0.0,T,,M,0.0,N,0.0,K,N*02
$GNGSA,A,1,,,,,,,,,,,,,99.0,99.0,99.0*1E
$GNGSA,A,1,,,,,,,,,,,,,99.0,99.0,99.0*1E
$GPGSV,3,1,12,19,61,149,,13,55,325,,20,47,312,,06,39,058,*7D
$GPGSV,3,2,12,15,37,277,,17,34,145,,24,30,216,,22,28,134,*74
$GPGSV,3,3,12,11,25,012,,30,24,056,,12,18,254,,14,18,119,*74
$GLGSV,2,1,07,84,57,068,,73,32,131,,85,31,005,,74,32,191,*66
$GLGSV,2,2,07,72,28,261,,83,27,137,,71,25,320,,,,,*53
$GPGLL,1952.21561,S,04357.77099,W,211554.600,V7,,17,5,31,005,,74,32,191,*66
$GLGSV,2,2,07,72,28,261,,83,27,137,,71,25,320,,,,,*53
$GPGLL,1952.21561,S,04357.77099,W,211554.800,V,N*4B
$PSTMCPU,44.12,-1,49*4C
$GPRMC,211555.000,V,1952.21561,S,04357.77099,W,0.0,0.0,140426,,,N*70
$GPGGA,211555.000,1952.21561,S,04357.77099,W,0,00,99.0,796.01,M,0.0,M,,*67
$GPVTG,0.0,T,,M,0.0,N,0.0,K,N*02
$GNGSA,A,1,,,,,,,,,,,,,99.0,99.0,99.0*1E
$GNGSA,A,1,,,,,,,,,,,,,99.0,99.0,99.0*1E
$GPGSV,3,1,12,19,61,149,,13,55,325,,20,47,312,,06,39,058,*7D
$GPGSV,3,2,12,15,37,2.0*1E34,145,,24,30,216,,22,28,134,*74
$GPGSV,3,3,12,11,25,012,,30,24,056,,12,18,254,,14,18,119,*74
$GLGSV,2,1,07,84,57,068,,73,32,131,,85,31,005,,74,32,191,*66
$GLGSV,2,2,07,72,28,261,,83,27,137,,71,25,320,,,,,*53
$GPGLL,1952.21561,S,04357.77099,W,211555.000,V,N*42
$PSTMCPU,44.12,-1,49*4C
$GPRMC,211555.200,V,1952.21561,S,04357.77099,W,0.0,0.0,140426,,,N*72
$GPGGA,211555.200,1952.21561,S,04357.77099,W,0,00,99.0,796.01,M,0.0,M,,*65
$GPVTG,0.0,T,,M,0.0,N,0.0,K,N*02
$GNGSA,A,1,,,,,,,,,,,,,99.0,99.0,95.400,
$GNGSA,A,1,,,,,,,,,,,,,99.0,99.0,99.0*1E
$GPGSV,3,1,12,19,61,149,,13,55,325,,20,47,312,,06,39,058,*7D
$GPGSV,3,2,12,15,37,277,,17,34,145,,24,30,216,,22,28,134,*74
$GPGSV,3,3,12,11,25,012,,30,24,056,,12,18,254,,14,18,119,*74
$GLGSV,2,1,07,84,57,068,,73,32,131,,85,31,005,,74,32,191,*66
$GLGSV,2,2,07,72,28,261,,83,27,137,,71,25,320,,,,,*53
$GPGLL,1952.21561,S,04357.77099,W,211555.200,V,N*40
$PSTMCPU,44.12,-1,49*4C
$GPRMC,211555.400,V,1952.21561,S,04357.77099,W,0.0,0.0,140426,,,N*74
$GPGGA,211507,84,,211555.400,V,N*46
$PSTMCPU,64.98,-1,49*4C
$GPRMC,211555.600,V,1952.21561,S,04357.77099,W,0.0,0.0,140426,,,N*76
$GPGGA,211555.600,1952.21561,S,04357.77099,W,0,00,99.0,796.01,M,0.0,M,,*61
$GPVTG,0.0,T,,M,0.0,N,0.0,K,N*02
$GNGSA,A,1,,,,,,,,,,,,,99.0,99.0,99.0*1E
$GNGSA,A,1,,,,,,,,,,,,,99.0,99.0,99.0*1E
$GPGSV,3,1,12,19,61,149,,13,55,325,,20,47,312,,06,39,058,*7D
$GPGSV,3,2,12,15,37,277,,17,34,145,,24,30,216,,22,28,134,*74
$GPGSV,3,3,12,11,25,012,,30,24,056,,12,18,254,,14,18,119,*74
$GLGSV,2,1PGSV,357,068,,73,32,131,,85,31,005,,74,32,191,*66
$GLGSV,2,2,07,72,28,261,,83,27,137,,71,25,320,,,,,*53
$GPGLL,1952.21561,S,04357.77099,W,211555.600,V,N*44
$PSTMCPU,64.98,-1,49*4C
$GPRMC,211555.800,V,1952.21561,S,04357.77099,W,0.0,0.0,140426,,,N*78
$GPGGA,211555.800,1952.21561,S,04357.77099,W,0,00,99.0,796.01,M,0.0,M,,*6F
$GPVTG,0.0,T,,M,0.0,N,0.0,K,N*02
$GNGSA,A,1,,,,,,,,,,,,,99.0,99.0,99.0*1E
$GNGSA,A,1,,,,,,,,,,,,,99.0,99.0,99.0*1E
$GPGSV,3,1,12,19,61,149,,13,55,325,,20,47,312,,06,39,058,*7D
$,,,,,,,2,12,15,37,277,,17,34,145,,24,30,216,,22,28,134,*74
$GPGSV,3,3,12,11,25,012,,30,24,056,,12,18,254,,14,18,119,*74
$GLGSV,2,1,07,84,57,068,,73,32,131,,85,31,005,,74,32,191,*66
$GLGSV,2,2,07,72,28,261,,83,27,137,,71,25,320,,,,,*53
$GPGLL,1952.21561,S,04357.77099,W,211555.800,V,N*4A
$PSTMCPU,64.98,-1,49*4C
$GPRMC,211556.000,V,1952.21561,S,04357.77099,W,0.0,0.0,140426,,,N*73
$GPGGA,211556.000,1952.21561,S,04357.77099,W,0,00,99.0,796.01,M,0.0,M,,*64
$GPVTG,0.0,T,,M,0.0,N,0.0,K,N*02
$GNGSA,A,1,,,,,,N*71,,99.0,99.0,99.0*1E
$GNGSA,A,1,,,,,,,,,,,,,99.0,99.0,99.0*1E
$GPGSV,3,1,12,19,61,149,,13,55,325,,20,47,312,,06,39,058,*7D
$GPGSV,3,2,12,15,37,277,,17,34,145,,24,30,216,,22,28,134,*74
$GPGSV,3,3,12,11,25,012,,30,24,056,,12,18,254,,14,18,119,*74
$GLGSV,2,1,07,84,57,068,,73,32,131,,85,31,005,,74,32,191,*66
$GLGSV,2,2,07,72,28,261,,83,27,137,,71,25,320,,,,,*53
$GPGLL,1952.21561,S,04357.77099,W,211556.000,V,N*41
$PSTMCPU,64.98,-1,49*4C
$GPRMC,211556.200,V,1952.21561,S,04357.77099,W,0.0,0.0,140426119,*71561,S,04357.77099,W,211556.200,V,N*43
$PSTMCPU,64.98,-1,49*4C
$GPRMC,211556.400,V,1952.21561,S,04357.77099,W,0.0,0.0,140426,,,N*77
$GPGGA,211556.400,1952.21561,S,04357.77099,W,0,00,99.0,796.01,M,0.0,M,,*60
$GPVTG,0.0,T,,M,0.0,N,0.0,K,N*02
$GNGSA,A,1,,,,,,,,,,,,,99.0,99.0,99.0*1E
$GNGSA,A,1,,,,,,,,,,,,,99.0,99.0,99.0*1E
$GPGSV,3,1,12,19,61,149,,13,55,325,,20,47,312,,06,39,058,*7D
$GPGSV,3,2,12,15,37,277,,17,34,145,,24,30,216,,22,28,134,*74
$GPGSV,3,3,12,11,25,012,,30,24,056,,12,18,254,,14,182,,06,4
$GLGSV,2,1,07,84,57,068,,73,32,131,,85,31,005,,74,32,191,*66
$GLGSV,2,2,07,72,28,261,,83,27,137,,71,25,320,,,,,*53
$GPGLL,1952.21561,S,04357.77099,W,211556.400,V,N*45
$PSTMCPU,41.02,-1,49*48
$GPRMC,211556.600,V,1952.21561,S,04357.77099,W,0.0,0.0,140426,,,N*75
$GPGGA,211556.600,1952.21561,S,04357.77099,W,0,00,99.0,796.01,M,0.0,M,,*62
$GPVTG,0.0,T,,M,0.0,N,0.0,K,N*02
$GNGSA,A,1,,,,,,,,,,,,,99.0,99.0,99.0*1E
$GNGSA,A,1,,,,,,,,,,,,,99.0,99.0,99.0*1E
$GPGSV,3,1,12,19,61,149,,13,55,325,,20,47,3*02
$39,058,*7D
$GPGSV,3,2,12,15,37,277,,17,34,145,,24,30,216,,22,28,134,*74
$GPGSV,3,3,12,11,25,012,,30,24,056,,12,18,254,,14,18,119,*74
$GLGSV,2,1,07,84,57,068,,73,32,131,,85,31,005,,74,32,191,*66
$GLGSV,2,2,07,72,28,261,,83,27,137,,71,25,320,,,,,*53
$GPGLL,1952.21561,S,04357.77099,W,211556.600,V,N*47
$PSTMCPU,41.02,-1,49*48
$GPRMC,211556.800,V,1952.21561,S,04357.77099,W,0.0,0.0,140426,,,N*7B
$GPGGA,211556.800,1952.21561,S,04357.77099,W,0,00,99.0,796.01,M,0.0,M,,*6C
$GPVTG,0.0,T,,M,0.0,N,0.0,K,99,W,0GNGSA,A,1,,,,,,,,,,,,,99.0,99.0,99.0*1E
$GNGSA,A,1,,,,,,,,,,,,,99.0,99.0,99.0*1E
$GPGSV,3,1,12,19,61,149,,13,55,325,,20,47,312,,06,39,058,*7D
$GPGSV,3,2,12,15,37,277,,17,34,145,,24,30,216,,22,28,134,*74
$GPGSV,3,3,12,11,25,012,,30,24,056,,12,18,254,,14,18,119,*74
$GLGSV,2,1,07,84,57,068,,73,32,131,,85,31,005,,74,32,191,*66
$GLGSV,2,2,07,72,28,261,,83,27,137,,71,25,320,,,,,*53
$GPGLL,1952.21561,S,04357.77099,W,211556.800,V,N*49
$PSTMCPU,41.02,-1,49*48
$GPRMC,211557.000,V,1952.21561,S,04357.776,,12,,,*53
$GPGLL,1952.21561,S,04357.77099,W,211557.000,V,N*40
$PSTMCPU,41.02,-1,49*48
$GPRMC,211557.200,V,1952.21561,S,04357.77099,W,0.0,0.0,140426,,,N*70
$GPGGA,211557.200,1952.21561,S,04357.77099,W,0,00,99.0,796.01,M,0.0,M,,*67
$GPVTG,0.0,T,,M,0.0,N,0.0,K,N*02
$GNGSA,A,1,,,,,,,,,,,,,99.0,99.0,99.0*1E
$GNGSA,A,1,,,,,,,,,,,,,99.0,99.0,99.0*1E
$GPGSV,3,1,12,19,61,149,,13,55,325,,20,47,312,,06,39,058,*7D
$GPGSV,3,2,12,15,37,277,,17,34,145,,24,30,216,,22,28,134,*74
$GPGSV,3,3,12,11,25,012,,30,24,0,13,5518,254,,14,18,119,*74
$GLGSV,2,1,07,84,57,068,,73,32,131,,85,31,005,,74,32,191,*66
$GLGSV,2,2,07,72,28,261,,83,27,137,,71,25,320,,,,,*53
$GPGLL,1952.21561,S,04357.77099,W,211557.200,V,N*42
$PSTMCPU,41.02,-1,49*48
$GPRMC,211557.400,V,1952.21561,S,04357.77099,W,0.0,0.0,140426,,,N*76
$GPGGA,211557.400,1952.21561,S,04357.77099,W,0,00,99.0,796.01,M,0.0,M,,*61
$GPVTG,0.0,T,,M,0.0,N,0.0,K,N*02
$GNGSA,A,1,,,,,,,,,,,,,99.0,99.0,99.0*1E
$GNGSA,A,1,,,,,,,,,,,,,99.0,99.0,99.0*1E
$GPGSV,3,1,12,19,61,1490,T,,M,325,,20,47,312,,06,39,058,*7D
$GPGSV,3,2,12,15,37,277,,17,34,145,,24,30,216,,22,28,134,*74
$GPGSV,3,3,12,11,25,012,,30,24,056,,12,18,254,,14,18,119,*74
$GLGSV,2,1,07,84,57,068,,73,32,131,,85,31,005,,74,32,191,*66
$GLGSV,2,2,07,72,28,261,,83,27,137,,71,25,320,,,,,*53
$GPGLL,1952.21561,S,04357.77099,W,211557.400,V,N*44
$PSTMCPU,47.68,-1,49*42
$GPRMC,211557.600,V,1952.21561,S,04357.77099,W,0.0,0.0,140426,,,N*74
$GPGGA,211557.600,1952.21561,S,04357.77099,W,0,00,99.0,796.01,M,0.0,M,,*63
$GPVTG,052.215,0.0,N,0.0,K,N*02
$GNGSA,A,1,,,,,,,,,,,,,99.0,99.0,99.0*1E
$GNGSA,A,1,,,,,,,,,,,,,99.0,99.0,99.0*1E
$GPGSV,3,1,12,19,61,149,,13,55,325,,20,47,312,,06,39,058,*7D
$GPGSV,3,2,12,15,37,277,,17,34,145,,24,30,216,,22,28,134,*74
$GPGSV,3,3,12,11,25,012,,30,24,056,,12,18,254,,14,18,119,*74
$GLGSV,2,1,07,84,57,068,,73,32,131,,85,31,005,,74,32,191,*66
$GLGSV,2,2,07,72,28,261,,83,27,137,,71,25,320,,,,,*53
$GPGLL,1952.21561,S,04357.77099,W,211557.600,V,N*46
$PSTMCPU,47.68,-1,49*42
$GPRMC,211557.800,V,1,11,2527,137,,71,25,320,,,,,*53
$GPGLL,1952.21561,S,04357.77099,W,211557.800,V,N*48
$PSTMCPU,47.68,-1,49*42
$GPRMC,211558.000,V,1952.21561,S,04357.77099,W,0.0,0.0,140426,,,N*7D
$GPGGA,211558.000,1952.21561,S,04357.77099,W,0,00,99.0,796.01,M,0.0,M,,*6A
$GPVTG,0.0,T,,M,0.0,N,0.0,K,N*02
$GNGSA,A,1,,,,,,,,,,,,,99.0,99.0,99.0*1E
$GNGSA,A,1,,,,,,,,,,,,,99.0,99.0,99.0*1E
$GPGSV,3,1,12,19,61,149,,13,55,325,,20,47,312,,06,39,058,*7D
$GPGSV,3,2,12,15,37,277,,17,34,145,,24,30,216,,22,28,134,*74
$GPGSV,3,3,1.0,M,,,12,19,61,149,,13,55,325,,20,47,312,,06,39,058,*7D
$GPGSV,3,2,12,15,37,277,,17,34,145,,24,30,216,,22,28,134,*74
$GPGSV,3,3,12,11,25,012,,30,24,056,,12,18,254,,14,18,119,*74
$GLGSV,2,1,07,84,57,068,,73,32,131,,85,31,005,,74,32,191,*66
$GLGSV,2,2,07,72,28,261,,83,27,137,,71,25,320,,,,,*53
$GPGLL,1952.21561,S,04357.77099,W,211558.200,V,N*4D
$PSTMCPU,47.68,-1,49*42
$GPRMC,211558.400,V,1952.21561,S,04357.77099,W,0.0,0.0,140426,,,N*79
$GPGGA,211558.400,1952.21561,S,04357.77099,W,0,00,99.0,796.01,M,PRMC,2*6E
$GPVTG,0.0,T,,M,0.0,N,0.0,K,N*02
$GNGSA,A,1,,,,,,,,,,,,,99.0,99.0,99.0*1E
$GNGSA,A,1,,,,,,,,,,,,,99.0,99.0,99.0*1E
$GPGSV,3,1,12,19,61,149,,13,55,325,,20,47,312,,06,39,058,*7D
$GPGSV,3,2,12,15,37,277,,17,34,145,,24,30,216,,22,28,134,*74
$GPGSV,3,3,12,11,25,012,,30,24,056,,12,18,254,,14,18,119,*74
$GLGSV,2,1,07,84,57,068,,73,32,131,,85,31,005,,74,32,191,*66
$GLGSV,2,2,07,72,28,261,,83,27,137,,71,25,320,,,,,*53
$GPGLL,1952.21561,S,04357.77099,W,211558.400,V,N*4B
$PSTMCPU,65.52,-1,49*4B
$4,*74,2,07,72,28,261,,83,27,137,,71,25,320,,,,,*53
$GPGLL,1952.21561,S,04357.77099,W,211558.600,V,N*49
$PSTMCPU,65.52,-1,49*4B
$GPRMC,211558.800,V,1952.21561,S,04357.77099,W,0.0,0.0,140426,,,N*75
$GPGGA,211558.800,1952.21561,S,04357.77099,W,0,00,99.0,796.01,M,0.0,M,,*62
$GPVTG,0.0,T,,M,0.0,N,0.0,K,N*02
$GNGSA,A,1,,,,,,,,,,,,,99.0,99.0,99.0*1E
$GNGSA,A,1,,,,,,,,,,,,,99.0,99.0,99.0*1E
$GPGSV,3,1,12,19,61,149,,13,55,325,,20,47,312,,06,39,058,*7D
$GPGSV,3,2,12,15,37,277,,17,34,145,,24,30,216,,22,28,10,99.0
$GPGSV,3,3,12,11,25,012,,30,24,056,,12,18,254,,14,18,119,*74
$GLGSV,2,1,07,84,57,068,,73,32,131,,85,31,005,,74,32,191,*66
$GLGSV,2,2,07,72,28,261,,83,27,137,,71,25,320,,,,,*53
$GPGLL,1952.21561,S,04357.77099,W,211558.800,V,N*47
$PSTMCPU,65.52,-1,49*4B
$GPRMC,211559.000,V,1952.21561,S,04357.77099,W,0.0,0.0,140426,,,N*7C
$GPGGA,211559.000,1952.21561,S,04357.77099,W,0,00,99.0,796.01,M,0.0,M,,*6B
$GPVTG,0.0,T,,M,0.0,N,0.0,K,N*02
$GNGSA,A,1,,,,,,,,,,,,,99.0,99.0,99.0*1E
$GNGSA,A,1,,,,,,,,,,,,,990,00,9,99.0*1E
$GPGSV,3,1,12,19,61,149,,13,55,325,,20,47,312,,06,39,058,*7D
$GPGSV,3,2,12,15,37,277,,17,34,145,,24,30,216,,22,28,134,*74
$GPGSV,3,3,12,11,25,012,,30,24,056,,12,18,254,,14,18,119,*74
$GLGSV,2,1,07,84,57,068,,73,32,131,,85,31,005,,74,32,191,*66
$GLGSV,2,2,07,72,28,261,,83,27,137,,71,25,320,,,,,*53
$GPGLL,1952.21561,S,04357.77099,W,211559.000,V,N*4E
$PSTMCPU,65.52,-1,49*4B
$GPRMC,211559.200,V,1952.21561,S,04357.77099,W,0.0,0.0,140426,,,N*7E
$GPGGA,211559.200,1952.21561,S,04357.77099,W5,,74,2,-1,49*4B
$GPRMC,211559.400,V,1952.21561,S,04357.77099,W,0.0,0.0,140426,,,N*78
$GPGGA,211559.400,1952.21561,S,04357.77099,W,0,00,99.0,796.01,M,0.0,M,,*6F
$GPVTG,0.0,T,,M,0.0,N,0.0,K,N*02
$GNGSA,A,1,,,,,,,,,,,,,99.0,99.0,99.0*1E
$GNGSA,A,1,,,,,,,,,,,,,99.0,99.0,99.0*1E
$GPGSV,3,1,12,19,61,149,,13,55,325,,20,47,312,,06,39,058,*7D
$GPGSV,3,2,12,15,37,277,,17,34,145,,24,30,216,,22,28,134,*74
$GPGSV,3,3,12,11,25,012,,30,24,056,,12,18,254,,14,18,119,*74
$GLGSV,2,1,07,84,57,068,,73,32,131,,85,31,0,24,3032,191,*66
$GLGSV,2,2,07,72,28,261,,83,27,137,,71,25,320,,,,,*53
$GPGLL,1952.21561,S,04357.77099,W,211559.400,V,N*4A
$PSTMCPU,35.11,-1,49*49
$GPRMC,211559.600,V,1952.21561,S,04357.77099,W,0.0,0.0,140426,,,N*7A
$GPGGA,211559.600,1952.21561,S,04357.77099,W,0,00,99.0,796.01,M,0.0,M,,*6D
$GPVTG,0.0,T,,M,0.0,N,0.0,K,N*02
$GNGSA,A,1,,,,,,,,,,,,,99.0,99.0,99.0*1E
$GNGSA,A,1,,,,,,,,,,,,,99.0,99.0,99.0*1E
$GPGSV,3,1,12,19,61,149,,13,55,325,,20,47,312,,06,39,058,*7D
$GPGSV,3,2,12,15,37,277,,17,34,145,A,1,,,216,,22,28,134,*74
$GPGSV,3,3,12,11,25,012,,30,24,056,,12,18,254,,14,18,119,*74
$GLGSV,2,1,07,84,57,068,,73,32,131,,85,31,005,,74,32,191,*66
$GLGSV,2,2,07,72,28,261,,83,27,137,,71,25,320,,,,,*53
$GPGLL,1952.21561,S,04357.77099,W,211559.600,V,N*48
$PSTMCPU,35.11,-1,49*49
$GPRMC,211559.800,V,1952.21561,S,04357.77099,W,0.0,0.0,140426,,,N*74
$GPGGA,211559.800,1952.21561,S,04357.77099,W,0,00,99.0,796.01,M,0.0,M,,*63
$GPVTG,0.0,T,,M,0.0,N,0.0,K,N*02
$GNGSA,A,1,,,,,,,,,,,,,99.0,99.0,99.0*1E
$GNGS561,S,,,,,,,,,,,,99.0,99.0,99.0*1E
$GPGSV,3,1,12,19,61,149,,13,55,325,,20,47,312,,06,39,058,*7D
$GPGSV,3,2,12,15,37,277,,17,34,145,,24,30,216,,22,28,134,*74
$GPGSV,3,3,12,11,25,012,,30,24,056,,12,18,254,,14,18,119,*74
$GLGSV,2,1,07,84,57,068,,73,32,131,,85,31,005,,74,32,191,*66
$GLGSV,2,2,07,72,28,261,,83,27,137,,71,25,320,,,,,*53
$GPGLL,1952.21561,S,04357.77099,W,211559.800,V,N*46
$PSTMCPU,35.11,-1,49*49
$GPRMC,211600.000,V,1952.21561,S,04357.77099,W,0.0,0.0,140426,,,N*73
$GPGGA,211600.000,1952.2,73,32,N*41
$PSTMCPU,35.11,-1,49*49
$GPRMC,211600.200,V,1952.21561,S,04357.77099,W,0.0,0.0,140426,,,N*71
$GPGGA,211600.200,1952.21561,S,04357.77099,W,0,00,99.0,796.01,M,0.0,M,,*66
$GPVTG,0.0,T,,M,0.0,N,0.0,K,N*02
$GNGSA,A,1,,,,,,,,,,,,,99.0,99.0,99.0*1E
$GNGSA,A,1,,,,,,,,,,,,,99.0,99.0,99.0*1E
$GPGSV,3,1,12,19,61,149,,13,55,325,,20,47,312,,06,39,058,*7D
$GPGSV,3,2,12,15,37,277,,17,34,145,,24,30,216,,22,28,134,*74
$GPGSV,3,3,12,11,25,012,,30,24,056,,12,18,254,,14,18,119,*74
$GLGSV,2,1,07,84,57,0685,37,2,131,,85,31,005,,74,32,191,*66
$GLGSV,2,2,07,72,28,261,,83,27,137,,71,25,320,,,,,*53
$GPGLL,1952.21561,S,04357.77099,W,211600.200,V,N*43
$PSTMCPU,35.11,-1,49*49
$GPRMC,211600.400,V,1952.21561,S,04357.77099,W,0.0,0.0,140426,,,N*77
$GPGGA,211600.400,1952.21561,S,04357.77099,W,0,00,99.0,796.01,M,0.0,M,,*60
$GPVTG,0.0,T,,M,0.0,N,0.0,K,N*02
$GNGSA,A,1,,,,,,,,,,,,,99.0,99.0,99.0*1E
$GNGSA,A,1,,,,,,,,,,,,,99.0,99.0,99.0*1E
$GPGSV,3,1,12,19,61,149,,13,55,325,,20,47,312,,06,39,058,*7D
$GPGSV,3,2,12,99.0,977,,17,34,145,,24,30,216,,22,28,134,*74
$GPGSV,3,3,12,11,25,012,,30,24,056,,12,18,254,,14,18,119,*74
$GLGSV,2,1,07,84,57,068,,73,32,131,,85,31,005,,74,32,191,*66
$GLGSV,2,2,07,72,28,261,,83,27,137,,71,25,320,,,,,*53
$GPGLL,1952.21561,S,04357.77099,W,211600.400,V,N*45
$PSTMCPU,51.34,-1,49*4C
$GPRMC,211600.600,V,1952.21561,S,04357.77099,W,0.0,0.0,140426,,,N*75
$GPGGA,211600.600,1952.21561,S,04357.77099,W,0,00,99.0,796.01,M,0.0,M,,*62
$GPVTG,0.0,T,,M,0.0,N,0.0,K,N*02
$GNGSA,A,1,,,,,,,,,,,,,99.0A,21169.0*1E
$GNGSA,A,1,,,,,,,,,,,,,99.0,99.0,99.0*1E
$GPGSV,3,1,12,19,61,149,,13,55,325,,20,47,312,,06,39,058,*7D
$GPGSV,3,2,12,15,37,277,,17,34,145,,24,30,216,,22,28,134,*74
$GPGSV,3,3,12,11,25,012,,30,24,056,,12,18,254,,14,18,119,*74
$GLGSV,2,1,07,84,57,068,,73,32,131,,85,31,005,,74,32,191,*66
$GLGSV,2,2,07,72,28,261,,83,27,137,,71,25,320,,,,,*53
$GPGLL,1952.21561,S,04357.77099,W,211600.600,V,N*47
$PSTMCPU,51.34,-1,49*4C
$GPRMC,211600.800,V,1952.21561,S,04357.77099,W,0.0,0.0,140426,,,N*7B
$GPGSV,2,177099,W,211600.800,V,N*49
$PSTMCPU,51.34,-1,49*4C
$GPRMC,211601.000,V,1952.21561,S,04357.77099,W,0.0,0.0,140426,,,N*72
$GPGGA,211601.000,1952.21561,S,04357.77099,W,0,00,99.0,796.01,M,0.0,M,,*65
$GPVTG,0.0,T,,M,0.0,N,0.0,K,N*02
$GNGSA,A,1,,,,,,,,,,,,,99.0,99.0,99.0*1E
$GNGSA,A,1,,,,,,,,,,,,,99.0,99.0,99.0*1E
$GPGSV,3,1,12,19,61,149,,13,55,325,,20,47,312,,06,39,058,*7D
$GPGSV,3,2,12,15,37,277,,17,34,145,,24,30,216,,22,28,134,*74
$GPGSV,3,3,12,11,25,012,,30,24,056,,12,18,254,,14,18,119,*74
$GL*7D
$,07,84,57,068,,73,32,131,,85,31,005,,74,32,191,*66
$GLGSV,2,2,07,72,28,261,,83,27,137,,71,25,320,,,,,*53
$GPGLL,1952.21561,S,04357.77099,W,211601.000,V,N*40
$PSTMCPU,51.34,-1,49*4C
$GPRMC,211601.200,V,1952.21561,S,04357.77099,W,0.0,0.0,140426,,,N*70
$GPGGA,211601.200,1952.21561,S,04357.77099,W,0,00,99.0,796.01,M,0.0,M,,*67
$GPVTG,0.0,T,,M,0.0,N,0.0,K,N*02
$GNGSA,A,1,,,,,,,,,,,,,99.0,99.0,99.0*1E
$GNGSA,A,1,,,,,,,,,,,,,99.0,99.0,99.0*1E
$GPGSV,3,1,12,19,61,149,,13,55,325,,20,47,312,,06,39,058,1,,,,GPGSV,3,2,12,15,37,277,,17,34,145,,24,30,216,,22,28,134,*74
$GPGSV,3,3,12,11,25,012,,30,24,056,,12,18,254,,14,18,119,*74
$GLGSV,2,1,07,84,57,068,,73,32,131,,85,31,005,,74,32,191,*66
$GLGSV,2,2,07,72,28,261,,83,27,137,,71,25,320,,,,,*53
$GPGLL,1952.21561,S,04357.77099,W,211601.200,V,N*42
$PSTMCPU,51.34,-1,49*4C
$GPRMC,211601.400,V,1952.21561,S,04357.77099,W,0.0,0.0,140426,,,N*76
$GPGGA,211601.400,1952.21561,S,04357.77099,W,0,00,99.0,796.01,M,0.0,M,,*61
$GPVTG,0.0,T,,M,0.0,N,0.0,K,N*02
$GNGSA,140426,,,,,,,,,99.0,99.0,99.0*1E
$GNGSA,A,1,,,,,,,,,,,,,99.0,99.0,99.0*1E
$GPGSV,3,1,12,19,61,149,,13,55,325,,20,47,312,,06,39,058,*7D
$GPGSV,3,2,12,15,37,277,,17,34,145,,24,30,216,,22,28,134,*74
$GPGSV,3,3,12,11,25,012,,30,24,056,,12,18,254,,14,18,119,*74
$GLGSV,2,1,07,84,57,068,,73,32,131,,85,31,005,,74,32,191,*66
$GLGSV,2,2,07,72,28,261,,83,27,137,,71,25,320,,,,,*53
$GPGLL,1952.21561,S,04357.77099,W,211601.400,V,N*44
$PSTMCPU,49.45,-1,49*43
$GPRMC,211601.600,V,1952.21561,S,04357.77099,W,0.0,0.0,14,18,1952.21561,S,04357.77099,W,211601.600,V,N*46
$PSTMCPU,49.45,-1,49*43
$GPRMC,211601.800,V,1952.21561,S,04357.77099,W,0.0,0.0,140426,,,N*7A
$GPGGA,211601.800,1952.21561,S,04357.77099,W,0,00,99.0,796.01,M,0.0,M,,*6D
$GPVTG,0.0,T,,M,0.0,N,0.0,K,N*02
$GNGSA,A,1,,,,,,,,,,,,,99.0,99.0,99.0*1E
$GNGSA,A,1,,,,,,,,,,,,,99.0,99.0,99.0*1E
$GPGSV,3,1,12,19,61,149,,13,55,325,,20,47,312,,06,39,058,*7D
$GPGSV,3,2,12,15,37,277,,17,34,145,,24,30,216,,22,28,134,*74
$GPGSV,3,3,12,11,25,012,,30,24,056,,12,18,2540,47,3,119,*74
$GLGSV,2,1,07,84,57,068,,73,32,131,,85,31,005,,74,32,191,*66
$GLGSV,2,2,07,72,28,261,,83,27,137,,71,25,320,,,,,*53
$GPGLL,1952.21561,S,04357.77099,W,211601.800,V,N*48
$PSTMCPU,49.45,-1,49*43
$GPRMC,211602.000,V,1952.21561,S,04357.77099,W,0.0,0.0,140426,,,N*71
$GPGGA,211602.000,1952.21561,S,04357.77099,W,0,00,99.0,796.01,M,0.0,M,,*66
$GPVTG,0.0,T,,M,0.0,N,0.0,K,N*02
$GNGSA,A,1,,,,,,,,,,,,,99.0,99.0,99.0*1E
$GNGSA,A,1,,,,,,,,,,,,,99.0,99.0,99.0*1E
$GPGSV,3,1,12,19,61,149,,13,55,325,,0.0,K,12,,06,39,058,*7D
$GPGSV,3,2,12,15,37,277,,17,34,145,,24,30,216,,22,28,134,*74
$GPGSV,3,3,12,11,25,012,,30,24,056,,12,18,254,,14,18,119,*74
$GLGSV,2,1,07,84,57,068,,73,32,131,,85,31,005,,74,32,191,*66
$GLGSV,2,2,07,72,28,261,,83,27,137,,71,25,320,,,,,*53
$GPGLL,1952.21561,S,04357.77099,W,211602.000,V,N*43
$PSTMCPU,49.45,-1,49*43
$GPRMC,211602.200,V,1952.21561,S,04357.77099,W,0.0,0.0,140426,,,N*73
$GPGGA,211602.200,1952.21561,S,04357.77099,W,0,00,99.0,796.01,M,0.0,M,,*64
$GPVTG,0.0,T,,M,0.0,N357.77N*02
$GNGSA,A,1,,,,,,,,,,,,,99.0,99.0,99.0*1E
$GNGSA,A,1,,,,,,,,,,,,,99.0,99.0,99.0*1E
$GPGSV,3,1,12,19,61,149,,13,55,325,,20,47,312,,06,39,059,*7C
$GPGSV,3,2,12,15,37,277,,17,34,145,,24,30,216,,22,28,134,*74
$GPGSV,3,3,12,11,25,012,,30,24,056,,12,18,254,,14,18,119,*74
$GLGSV,2,1,07,84,57,069,,73,32,131,,85,31,005,,74,32,191,*67
$GLGSV,2,2,07,72,28,261,,83,27,137,,71,25,320,,,,,*53
$GPGLL,1952.21561,S,04357.77099,W,211602.200,V,N*41
$PSTMCPU,49.45,-1,49*43
$GPRMC,211602.400,V,1952.21561,S,00,24,0,320,,,,,*53
$GPGLL,1952.21561,S,04357.77099,W,211602.400,V,N*47
$PSTMCPU,43.60,-1,49*4E
$GPRMC,211602.600,V,1952.21561,S,04357.77099,W,0.0,0.0,140426,,,N*77
$GPGGA,211602.600,1952.21561,S,04357.77099,W,0,00,99.0,796.01,M,0.0,M,,*60
$GPVTG,0.0,T,,M,0.0,N,0.0,K,N*02
$GNGSA,A,1,,,,,,,,,,,,,99.0,99.0,99.0*1E
$GNGSA,A,1,,,,,,,,,,,,,99.0,99.0,99.0*1E
$GPGSV,3,1,12,19,61,149,,13,55,325,,20,47,312,,06,39,059,*7C
$GPGSV,3,2,12,15,37,277,,17,34,145,,24,30,216,,22,28,134,*74
$GPGSV,3,3,12,11,25,012,,61,14956,,12,18,254,,14,18,119,*74
$GLGSV,2,1,07,84,57,069,,73,32,131,,85,31,005,,74,32,191,*67
$GLGSV,2,2,07,72,28,261,,83,27,137,,71,25,320,,,,,*53
$GPGLL,1952.21561,S,04357.77099,W,211602.600,V,N*45
$PSTMCPU,43.60,-1,49*4E
$GPRMC,211602.800,V,1952.21561,S,04357.77099,W,0.0,0.0,140426,,,N*79
$GPGGA,211602.800,1952.21561,S,04357.77099,W,0,00,99.0,796.01,M,0.0,M,,*6E
$GPVTG,0.0,T,,M,0.0,N,0.0,K,N*02
$GNGSA,A,1,,,,,,,,,,,,,99.0,99.0,99.0*1E
$GNGSA,A,1,,,,,,,,,,,,,99.0,99.0,99.0*1E
$GPGSV,3,1,12,19PVTG,0,,13,55,325,,20,47,312,,06,39,059,*7C
$GPGSV,3,2,12,15,37,277,,17,34,145,,24,30,216,,22,28,134,*74
$GPGSV,3,3,12,11,25,012,,30,24,056,,12,18,254,,14,18,119,*74
$GLGSV,2,1,07,84,57,069,,73,32,131,,85,31,005,,74,32,191,*67
$GLGSV,2,2,07,72,28,261,,83,27,137,,71,25,320,,,,,*53
$GPGLL,1952.21561,S,04357.77099,W,211602.800,V,N*4B
$PSTMCPU,43.60,-1,49*4E
$GPRMC,211603.000,V,1952.21561,S,04357.77099,W,0.0,0.0,140426,,,N*70
$GPGGA,211603.000,1952.21561,S,04357.77099,W,0,00,99.0,796.01,M,0.0,M,,*67
$00,V,1.0,T,,M,0.0,N,0.0,K,N*02
$GNGSA,A,1,,,,,,,,,,,,,99.0,99.0,99.0*1E
$GNGSA,A,1,,,,,,,,,,,,,99.0,99.0,99.0*1E
$GPGSV,3,1,12,19,61,149,,13,55,325,,20,47,312,,06,39,059,*7C
$GPGSV,3,2,12,15,37,277,,17,34,145,,24,30,216,,22,28,134,*74
$GPGSV,3,3,12,11,25,012,,30,24,056,,12,18,254,,14,18,119,*74
$GLGSV,2,1,07,84,57,069,,73,32,131,,85,31,005,,74,32,191,*67
$GLGSV,2,2,07,72,28,261,,83,27,137,,71,25,320,,,,,*53
$GPGLL,1952.21561,S,04357.77099,W,211603.000,V,N*42
$PSTMCPU,43.60,-1,49*4E
$GPRMC,211603.,3,3,161,,83,27,137,,71,25,320,,,,,*53
$GPGLL,1952.21561,S,04357.77099,W,211603.200,V,N*40
